[
 {
   "Store Name": "Meritxell, 96",
   "Longitude": 1.53,
   "Latitude": 42.51
 },
 {
   "Store Name": "Ajman Drive Thru",
   "Longitude": 55.47,
   "Latitude": 25.42
 },
 {
   "Store Name": "Dana Mall",
   "Longitude": 55.47,
   "Latitude": 25.39
 },
 {
   "Store Name": "Twofour 54",
   "Longitude": 54.38,
   "Latitude": 24.48
 },
 {
   "Store Name": "Al Ain Tower",
   "Longitude": 54.54,
   "Latitude": 24.51
 },
 {
   "Store Name": "Dalma Mall, Ground Floor",
   "Longitude": 54.49,
   "Latitude": 24.4
 },
 {
   "Store Name": "Dalma Mall, Level 1",
   "Longitude": 54.49,
   "Latitude": 24.4
 },
 {
   "Store Name": "Debenhams Yas Mall",
   "Longitude": 54.61,
   "Latitude": 24.46
 },
 {
   "Store Name": "Khalidiya Street",
   "Longitude": 55.69,
   "Latitude": 24.19
 },
 {
   "Store Name": "Eastern Mangroves",
   "Longitude": 54.38,
   "Latitude": 24.48
 },
 {
   "Store Name": "Nation Towers",
   "Longitude": 54.34,
   "Latitude": 24.47
 },
 {
   "Store Name": "HCT Abu Dhabi Women's College Block",
   "Longitude": 54.37,
   "Latitude": 24.49
 },
 {
   "Store Name": "Standard Chartered Building",
   "Longitude": 55.69,
   "Latitude": 24.19
 },
 {
   "Store Name": "International Tower",
   "Longitude": 54.7,
   "Latitude": 24.3
 },
 {
   "Store Name": "Yas Mall 3",
   "Longitude": 54.6,
   "Latitude": 24.48
 },
 {
   "Store Name": "Blue Tower A",
   "Longitude": 55.74,
   "Latitude": 24.21
 },
 {
   "Store Name": "Corniche Park DT",
   "Longitude": 54.34,
   "Latitude": 24.47
 },
 {
   "Store Name": "Khalidiya Mall",
   "Longitude": 54.35,
   "Latitude": 24.47
 },
 {
   "Store Name": "Al Wahda Mall",
   "Longitude": 54.37,
   "Latitude": 24.47
 },
 {
   "Store Name": "Al Seef Village",
   "Longitude": 54.38,
   "Latitude": 24.48
 },
 {
   "Store Name": "Shangri-La Souq",
   "Longitude": 54.51,
   "Latitude": 24.42
 },
 {
   "Store Name": "Abu Dhabi University, Men's",
   "Longitude": 54.35,
   "Latitude": 24.46
 },
 {
   "Store Name": "MUshrif Mall 1",
   "Longitude": 54.66,
   "Latitude": 24.41
 },
 {
   "Store Name": "Boutik Mall Sun & Sky",
   "Longitude": 54.41,
   "Latitude": 24.5
 },
 {
   "Store Name": "Marina Mall",
   "Longitude": 54.32,
   "Latitude": 24.47
 },
 {
   "Store Name": "Abu Dhabi University, Women's",
   "Longitude": 54.57,
   "Latitude": 24.35
 },
 {
   "Store Name": "Hamdan Street",
   "Longitude": 55.62,
   "Latitude": 24.21
 },
 {
   "Store Name": "Saadiyat Island",
   "Longitude": 54.44,
   "Latitude": 24.54
 },
 {
   "Store Name": "Camellia Flowers",
   "Longitude": 54.34,
   "Latitude": 24.47
 },
 {
   "Store Name": "Deerfields",
   "Longitude": 54.94,
   "Latitude": 24.9
 },
 {
   "Store Name": "Abu Dhabi Mall",
   "Longitude": 54.37,
   "Latitude": 24.5
 },
 {
   "Store Name": "Zayed University",
   "Longitude": 54.6,
   "Latitude": 24.4
 },
 {
   "Store Name": "Bawabat Al Sharq",
   "Longitude": 55.77,
   "Latitude": 24.48
 },
 {
   "Store Name": "Guardian Tower",
   "Longitude": 54.44,
   "Latitude": 24.43
 },
 {
   "Store Name": "Ferrari World Welcome Pavilion",
   "Longitude": 54.61,
   "Latitude": 24.46
 },
 {
   "Store Name": "Al Mamoura",
   "Longitude": 54.39,
   "Latitude": 24.46
 },
 {
   "Store Name": "Ministry of Interior",
   "Longitude": 54.39,
   "Latitude": 24.43
 },
 {
   "Store Name": "ADNOC Mushrif",
   "Longitude": 54.66,
   "Latitude": 24.41
 },
 {
   "Store Name": "Twin Towers 13th Street",
   "Longitude": 55.53,
   "Latitude": 23.85
 },
 {
   "Store Name": "Al Falah Community",
   "Longitude": 54.37,
   "Latitude": 24.47
 },
 {
   "Store Name": "Abu Dhabi Police HQ",
   "Longitude": 54.37,
   "Latitude": 24.52
 },
 {
   "Store Name": "Western Region",
   "Longitude": 54.37,
   "Latitude": 24.48
 },
 {
   "Store Name": "Raha Garden",
   "Longitude": 54.37,
   "Latitude": 24.47
 },
 {
   "Store Name": "Al Ain Ladies Club",
   "Longitude": 55.4,
   "Latitude": 24.12
 },
 {
   "Store Name": "Jahli Park",
   "Longitude": 55.29,
   "Latitude": 25.24
 },
 {
   "Store Name": "Tawam Hospital",
   "Longitude": 55.65,
   "Latitude": 24.19
 },
 {
   "Store Name": "Jimmy Mall",
   "Longitude": 55.73,
   "Latitude": 24.24
 },
 {
   "Store Name": "Al Ain Mall",
   "Longitude": 55.39,
   "Latitude": 25.1
 },
 {
   "Store Name": "Bawadi Mall",
   "Longitude": 55.81,
   "Latitude": 24.16
 },
 {
   "Store Name": "Wahat Hili Mall",
   "Longitude": 55.69,
   "Latitude": 24.21
 },
 {
   "Store Name": "Oasis Hospital",
   "Longitude": 55.8,
   "Latitude": 24.13
 },
 {
   "Store Name": "YAS Mall",
   "Longitude": 54.47,
   "Latitude": 24.41
 },
 {
   "Store Name": "Al Ruwais Mall",
   "Longitude": 54.63,
   "Latitude": 24.29
 },
 {
   "Store Name": "Shamkha Mall",
   "Longitude": 54.69,
   "Latitude": 24.39
 },
 {
   "Store Name": "Al Barsha Commercial",
   "Longitude": 55.23,
   "Latitude": 25.05
 },
 {
   "Store Name": "Umm Sequeim",
   "Longitude": 55.23,
   "Latitude": 25.17
 },
 {
   "Store Name": "Reel Cinema",
   "Longitude": 55.6,
   "Latitude": 24.78
 },
 {
   "Store Name": "Dubai Airport Concourse 3",
   "Longitude": 55.35,
   "Latitude": 25.25
 },
 {
   "Store Name": "City Walk - Dubai",
   "Longitude": 55.31,
   "Latitude": 25.27
 },
 {
   "Store Name": "DIFC 2",
   "Longitude": 55.16,
   "Latitude": 25.1
 },
 {
   "Store Name": "The Residence Tower 1",
   "Longitude": 55.27,
   "Latitude": 25.19
 },
 {
   "Store Name": "Emirates Tower",
   "Longitude": 55.28,
   "Latitude": 25.21
 },
 {
   "Store Name": "Dubai Marina",
   "Longitude": 55.15,
   "Latitude": 25.08
 },
 {
   "Store Name": "Dubai Airport - Concourse D West",
   "Longitude": 55.35,
   "Latitude": 25.25
 },
 {
   "Store Name": "Mall of the Emirates - Ski #2",
   "Longitude": 55.2,
   "Latitude": 25.12
 },
 {
   "Store Name": "Bin Sougat",
   "Longitude": 55.4,
   "Latitude": 25.23
 },
 {
   "Store Name": "Old Town Amenity Building",
   "Longitude": 55.28,
   "Latitude": 25.19
 },
 {
   "Store Name": "Atlantis",
   "Longitude": 55.12,
   "Latitude": 25.13
 },
 {
   "Store Name": "Jumeirah Beach Road",
   "Longitude": 55.14,
   "Latitude": 25.08
 },
 {
   "Store Name": "Oasis Centre",
   "Longitude": 55.24,
   "Latitude": 25.17
 },
 {
   "Store Name": "Jumeirah Beach Residence 3 P24a",
   "Longitude": 55.13,
   "Latitude": 25.07
 },
 {
   "Store Name": "Dubai Airport T1 Landside Departure",
   "Longitude": 55.31,
   "Latitude": 25.27
 },
 {
   "Store Name": "Old Town Commercial Island",
   "Longitude": 55.28,
   "Latitude": 25.19
 },
 {
   "Store Name": "Al Gurrair Mall",
   "Longitude": 55.32,
   "Latitude": 25.27
 },
 {
   "Store Name": "Jumeirah Beach Residence 6 GM10",
   "Longitude": 55.13,
   "Latitude": 25.07
 },
 {
   "Store Name": "Atlantis The Avenues",
   "Longitude": 55.12,
   "Latitude": 25.13
 },
 {
   "Store Name": "Jumeirah Villa",
   "Longitude": 55.23,
   "Latitude": 25.19
 },
 {
   "Store Name": "Mercato Town Centre",
   "Longitude": 55.25,
   "Latitude": 25.22
 },
 {
   "Store Name": "Emaar Business Park",
   "Longitude": 55.17,
   "Latitude": 25.1
 },
 {
   "Store Name": "DBX - Term 2 Landside",
   "Longitude": 55.31,
   "Latitude": 25.27
 },
 {
   "Store Name": "DED",
   "Longitude": 55.33,
   "Latitude": 25.26
 },
 {
   "Store Name": "Burj Dubai Business Park",
   "Longitude": 55.27,
   "Latitude": 25.2
 },
 {
   "Store Name": "Motor City",
   "Longitude": 55.24,
   "Latitude": 25.05
 },
 {
   "Store Name": "ENOC 1001",
   "Longitude": 55.35,
   "Latitude": 25.27
 },
 {
   "Store Name": "Riverland",
   "Longitude": 55.19,
   "Latitude": 25.11
 },
 {
   "Store Name": "Me'Aissem City Center",
   "Longitude": 55.19,
   "Latitude": 25.03
 },
 {
   "Store Name": "Etihad Mall",
   "Longitude": 55.42,
   "Latitude": 25.23
 },
 {
   "Store Name": "Park Place Showmax",
   "Longitude": 55.24,
   "Latitude": 25.2
 },
 {
   "Store Name": "Arabian Centre",
   "Longitude": 55.46,
   "Latitude": 25.26
 },
 {
   "Store Name": "Dubai Airport - Concourse D East",
   "Longitude": 55.35,
   "Latitude": 25.25
 },
 {
   "Store Name": "Gardens 3",
   "Longitude": 55.12,
   "Latitude": 25.04
 },
 {
   "Store Name": "Dubai Mall LG 118",
   "Longitude": 55.28,
   "Latitude": 25.2
 },
 {
   "Store Name": "Deira City Center 4",
   "Longitude": 55.33,
   "Latitude": 25.25
 },
 {
   "Store Name": "Sahara Tower",
   "Longitude": 55,
   "Latitude": 24.92
 },
 {
   "Store Name": "Shindagha Centre",
   "Longitude": 55.28,
   "Latitude": 25.24
 },
 {
   "Store Name": "Dubai Academic City",
   "Longitude": 55.42,
   "Latitude": 25.13
 },
 {
   "Store Name": "Madina Jumeirah",
   "Longitude": 55.19,
   "Latitude": 25.13
 },
 {
   "Store Name": "21st Century Tower",
   "Longitude": 55.28,
   "Latitude": 25.21
 },
 {
   "Store Name": "Gardens 2",
   "Longitude": 55.12,
   "Latitude": 25.05
 },
 {
   "Store Name": "Mirdif City Center - Central Atrium",
   "Longitude": 55.41,
   "Latitude": 25.22
 },
 {
   "Store Name": "Health Care City Dubai",
   "Longitude": 55.33,
   "Latitude": 25.23
 },
 {
   "Store Name": "Dubai Mall G 223",
   "Longitude": 55.28,
   "Latitude": 25.2
 },
 {
   "Store Name": "Wafi Mall",
   "Longitude": 55.28,
   "Latitude": 25.25
 },
 {
   "Store Name": "Dubai Mall 4",
   "Longitude": 55.44,
   "Latitude": 25.04
 },
 {
   "Store Name": "Uptown Mirdif",
   "Longitude": 55.43,
   "Latitude": 25.23
 },
 {
   "Store Name": "Deira City Center Mall",
   "Longitude": 55.33,
   "Latitude": 25.25
 },
 {
   "Store Name": "Palm Strip",
   "Longitude": 55.26,
   "Latitude": 25.23
 },
 {
   "Store Name": "Starbuck Box Park",
   "Longitude": 55.27,
   "Latitude": 25.23
 },
 {
   "Store Name": "JBR 1 Rimal Plaza",
   "Longitude": 55.13,
   "Latitude": 25.07
 },
 {
   "Store Name": "Dubai Festival City",
   "Longitude": 55.31,
   "Latitude": 25.27
 },
 {
   "Store Name": "Al Ghadeer Tower",
   "Longitude": 55.28,
   "Latitude": 25.22
 },
 {
   "Store Name": "Jebel Ali",
   "Longitude": 55.09,
   "Latitude": 24.99
 },
 {
   "Store Name": "MoE Level 2 Extension",
   "Longitude": 55.2,
   "Latitude": 25.12
 },
 {
   "Store Name": "Borders Â– Mall of the Emirates",
   "Longitude": 55.2,
   "Latitude": 25.12
 },
 {
   "Store Name": "Movenpick",
   "Longitude": 55.31,
   "Latitude": 25.23
 },
 {
   "Store Name": "Dubai Marina Mall",
   "Longitude": 55.14,
   "Latitude": 25.08
 },
 {
   "Store Name": "Mudon",
   "Longitude": 55.31,
   "Latitude": 25.27
 },
 {
   "Store Name": "JBR 2 Rimal Marina",
   "Longitude": 55.14,
   "Latitude": 25.08
 },
 {
   "Store Name": "Jumeirah Beach Residence 4 GM09",
   "Longitude": 55.14,
   "Latitude": 25.08
 },
 {
   "Store Name": "Starbucks - Boulevard Plaza",
   "Longitude": 55.16,
   "Latitude": 25.11
 },
 {
   "Store Name": "DBX - Dubai Airport Terminal 3 C201",
   "Longitude": 55.35,
   "Latitude": 25.25
 },
 {
   "Store Name": "DBX - Dubai Airport Terminal 3 C207",
   "Longitude": 55.35,
   "Latitude": 25.25
 },
 {
   "Store Name": "Gardens 1",
   "Longitude": 55.12,
   "Latitude": 25.04
 },
 {
   "Store Name": "Outlet Village",
   "Longitude": 55,
   "Latitude": 24.54
 },
 {
   "Store Name": "ENOC 1009 DT",
   "Longitude": 55.27,
   "Latitude": 25.2
 },
 {
   "Store Name": "Burjuman Centre II",
   "Longitude": 55.3,
   "Latitude": 25.25
 },
 {
   "Store Name": "Al Barsha Coop",
   "Longitude": 55.21,
   "Latitude": 25.1
 },
 {
   "Store Name": "Spinney's Silicon Oasis",
   "Longitude": 55.4,
   "Latitude": 25.13
 },
 {
   "Store Name": "Carrefour Green Community",
   "Longitude": 55.38,
   "Latitude": 25.11
 },
 {
   "Store Name": "World Trade Centre",
   "Longitude": 55.33,
   "Latitude": 25.29
 },
 {
   "Store Name": "Emaar Town Center",
   "Longitude": 55.17,
   "Latitude": 25.05
 },
 {
   "Store Name": "Knowledge Village",
   "Longitude": 55.16,
   "Latitude": 25.1
 },
 {
   "Store Name": "Bay Avenue - Business Bay",
   "Longitude": 55.16,
   "Latitude": 25.11
 },
 {
   "Store Name": "Fujairah City Centre",
   "Longitude": 56.3,
   "Latitude": 25.13
 },
 {
   "Store Name": "LuLu Fujairah",
   "Longitude": 56.33,
   "Latitude": 25.12
 },
 {
   "Store Name": "Al Hamra Mall",
   "Longitude": 55.78,
   "Latitude": 25.68
 },
 {
   "Store Name": "Al Manar Mall -",
   "Longitude": 55.97,
   "Latitude": 25.79
 },
 {
   "Store Name": "Safeer Mall",
   "Longitude": 55.92,
   "Latitude": 25.75
 },
 {
   "Store Name": "Sharjah Corniche",
   "Longitude": 55.39,
   "Latitude": 25.35
 },
 {
   "Store Name": "Mega Mall",
   "Longitude": 55.4,
   "Latitude": 25.35
 },
 {
   "Store Name": "Bukhatir Tower",
   "Longitude": 55.38,
   "Latitude": 25.33
 },
 {
   "Store Name": "Qanat Al Qasba",
   "Longitude": 55.38,
   "Latitude": 25.32
 },
 {
   "Store Name": "Sahara Center",
   "Longitude": 55.37,
   "Latitude": 25.3
 },
 {
   "Store Name": "American University of Sharjah",
   "Longitude": 55.48,
   "Latitude": 25.3
 },
 {
   "Store Name": "UAQ Drive Thru",
   "Longitude": 55.54,
   "Latitude": 25.53
 },
 {
   "Store Name": "Alto Avelleneda",
   "Longitude": -58.37,
   "Latitude": -34.68
 },
 {
   "Store Name": "Soleil",
   "Longitude": -57.87,
   "Latitude": -34.88
 },
 {
   "Store Name": "Arevalo",
   "Longitude": -58.44,
   "Latitude": -34.58
 },
 {
   "Store Name": "Terrazas de Mayo",
   "Longitude": -58.7,
   "Latitude": -34.53
 },
 {
   "Store Name": "San Isidro",
   "Longitude": -58.51,
   "Latitude": -34.47
 },
 {
   "Store Name": "Alvear",
   "Longitude": -58.5,
   "Latitude": -34.49
 },
 {
   "Store Name": "Plaza Barrientos",
   "Longitude": -58.4,
   "Latitude": -34.59
 },
 {
   "Store Name": "Bellini",
   "Longitude": -58.38,
   "Latitude": -34.6
 },
 {
   "Store Name": "Ezeiza",
   "Longitude": -58.53,
   "Latitude": -34.8
 },
 {
   "Store Name": "Martinez",
   "Longitude": -58.49,
   "Latitude": -34.48
 },
 {
   "Store Name": "Unicenter Shopping",
   "Longitude": -58.52,
   "Latitude": -34.51
 },
 {
   "Store Name": "Plaza Oeste",
   "Longitude": -58.65,
   "Latitude": -34.63
 },
 {
   "Store Name": "Champagnat",
   "Longitude": -58.92,
   "Latitude": -34.45
 },
 {
   "Store Name": "Las Palmas",
   "Longitude": -60.22,
   "Latitude": -33.39
 },
 {
   "Store Name": "Austral",
   "Longitude": -58.86,
   "Latitude": -34.46
 },
 {
   "Store Name": "Quilmes",
   "Longitude": -58.26,
   "Latitude": -34.72
 },
 {
   "Store Name": "Segundo Fernandez",
   "Longitude": -58.55,
   "Latitude": -34.49
 },
 {
   "Store Name": "San Justo",
   "Longitude": -58.56,
   "Latitude": -34.69
 },
 {
   "Store Name": "Nordelta",
   "Longitude": -58.66,
   "Latitude": -34.4
 },
 {
   "Store Name": "Buenos Aires Mall",
   "Longitude": -58.73,
   "Latitude": -34.45
 },
 {
   "Store Name": "Maipu",
   "Longitude": -58.47,
   "Latitude": -34.53
 },
 {
   "Store Name": "Jean Jaures",
   "Longitude": -58.41,
   "Latitude": -34.6
 },
 {
   "Store Name": "Maure",
   "Longitude": -58.44,
   "Latitude": -34.57
 },
 {
   "Store Name": "Ayacucho",
   "Longitude": -58.4,
   "Latitude": -34.6
 },
 {
   "Store Name": "Honduras",
   "Longitude": -58.44,
   "Latitude": -34.58
 },
 {
   "Store Name": "Juana Azurduy",
   "Longitude": -58.47,
   "Latitude": -34.55
 },
 {
   "Store Name": "Cabildo",
   "Longitude": -58.46,
   "Latitude": -34.56
 },
 {
   "Store Name": "Rodriguez Pena",
   "Longitude": -58.39,
   "Latitude": -34.6
 },
 {
   "Store Name": "Gran Rex",
   "Longitude": -58.38,
   "Latitude": -34.6
 },
 {
   "Store Name": "Paseo de la Infanta",
   "Longitude": -58.42,
   "Latitude": -34.57
 },
 {
   "Store Name": "Galeria guemes",
   "Longitude": -58.37,
   "Latitude": -34.61
 },
 {
   "Store Name": "Roosvelt",
   "Longitude": -58.46,
   "Latitude": -34.56
 },
 {
   "Store Name": "Malabia",
   "Longitude": -58.43,
   "Latitude": -34.59
 },
 {
   "Store Name": "Plaza Serrano",
   "Longitude": -58.42,
   "Latitude": -34.57
 },
 {
   "Store Name": "Edificio Pirelli",
   "Longitude": -58.38,
   "Latitude": -34.59
 },
 {
   "Store Name": "Arcos",
   "Longitude": -58.43,
   "Latitude": -34.58
 },
 {
   "Store Name": "Congreso",
   "Longitude": -58.38,
   "Latitude": -34.61
 },
 {
   "Store Name": "Federico Lacroze",
   "Longitude": -58.44,
   "Latitude": -34.57
 },
 {
   "Store Name": "Callao y Santa Fe",
   "Longitude": -58.39,
   "Latitude": -34.6
 },
 {
   "Store Name": "Galerias -Cordoba",
   "Longitude": -58.38,
   "Latitude": -34.6
 },
 {
   "Store Name": "Los Molinos",
   "Longitude": -58.36,
   "Latitude": -34.61
 },
 {
   "Store Name": "DOT Planta Baja",
   "Longitude": -58.49,
   "Latitude": -34.55
 },
 {
   "Store Name": "Elcano",
   "Longitude": -58.46,
   "Latitude": -34.57
 },
 {
   "Store Name": "Conquistador",
   "Longitude": -58.37,
   "Latitude": -34.6
 },
 {
   "Store Name": "Florida Plaza",
   "Longitude": -58.38,
   "Latitude": -34.6
 },
 {
   "Store Name": "Alto Palermo",
   "Longitude": -58.41,
   "Latitude": -34.59
 },
 {
   "Store Name": "Viamonte",
   "Longitude": -58.39,
   "Latitude": -34.6
 },
 {
   "Store Name": "Paseo Alcorta",
   "Longitude": -58.4,
   "Latitude": -34.58
 },
 {
   "Store Name": "Yatch V",
   "Longitude": -58.36,
   "Latitude": -34.6
 },
 {
   "Store Name": "Pampa",
   "Longitude": -58.45,
   "Latitude": -34.56
 },
 {
   "Store Name": "Avenida de Mayo",
   "Longitude": -58.38,
   "Latitude": -34.61
 },
 {
   "Store Name": "Edificio Republica",
   "Longitude": -58.37,
   "Latitude": -34.6
 },
 {
   "Store Name": "Edificio Intercontinental",
   "Longitude": -58.38,
   "Latitude": -34.61
 },
 {
   "Store Name": "UCA",
   "Longitude": -58.37,
   "Latitude": -34.61
 },
 {
   "Store Name": "Recoleta Mall",
   "Longitude": -58.39,
   "Latitude": -34.59
 },
 {
   "Store Name": "UADE II",
   "Longitude": -58.38,
   "Latitude": -34.62
 },
 {
   "Store Name": "Parque Rivadavia",
   "Longitude": -58.43,
   "Latitude": -34.62
 },
 {
   "Store Name": "Avenida La Plata",
   "Longitude": -58.43,
   "Latitude": -34.62
 },
 {
   "Store Name": "Tribunales",
   "Longitude": -58.39,
   "Latitude": -34.6
 },
 {
   "Store Name": "Portal Palermo",
   "Longitude": -58.43,
   "Latitude": -34.58
 },
 {
   "Store Name": "Devoto Shopping",
   "Longitude": -58.52,
   "Latitude": -34.61
 },
 {
   "Store Name": "Castex",
   "Longitude": -58.41,
   "Latitude": -34.58
 },
 {
   "Store Name": "Huidobro",
   "Longitude": -58.47,
   "Latitude": -34.54
 },
 {
   "Store Name": "Abasto Shopping Center",
   "Longitude": -58.41,
   "Latitude": -34.6
 },
 {
   "Store Name": "Callao - Buenos Aires",
   "Longitude": -58.39,
   "Latitude": -34.6
 },
 {
   "Store Name": "BIND",
   "Longitude": -58.37,
   "Latitude": -34.6
 },
 {
   "Store Name": "Edificio Bank Boston",
   "Longitude": -58.37,
   "Latitude": -34.6
 },
 {
   "Store Name": "UADE",
   "Longitude": -58.38,
   "Latitude": -34.62
 },
 {
   "Store Name": "Ramos Mejia",
   "Longitude": -58.57,
   "Latitude": -34.64
 },
 {
   "Store Name": "San Telmo",
   "Longitude": -58.37,
   "Latitude": -34.62
 },
 {
   "Store Name": "Mansilla",
   "Longitude": -58.41,
   "Latitude": -34.59
 },
 {
   "Store Name": "Florida 1",
   "Longitude": -58.37,
   "Latitude": -34.61
 },
 {
   "Store Name": "Austria",
   "Longitude": -58.4,
   "Latitude": -34.58
 },
 {
   "Store Name": "BA design",
   "Longitude": -58.39,
   "Latitude": -34.59
 },
 {
   "Store Name": "Reconquista",
   "Longitude": -58.37,
   "Latitude": -34.6
 },
 {
   "Store Name": "Cabello",
   "Longitude": -58.41,
   "Latitude": -34.58
 },
 {
   "Store Name": "Alliance",
   "Longitude": -58.38,
   "Latitude": -34.6
 },
 {
   "Store Name": "Olleros",
   "Longitude": -58.44,
   "Latitude": -34.57
 },
 {
   "Store Name": "Clinicas",
   "Longitude": -58.4,
   "Latitude": -34.6
 },
 {
   "Store Name": "Peru.",
   "Longitude": -58.37,
   "Latitude": -34.61
 },
 {
   "Store Name": "Defensores",
   "Longitude": -58.46,
   "Latitude": -34.54
 },
 {
   "Store Name": "Julian Alvarez",
   "Longitude": -58.41,
   "Latitude": -34.59
 },
 {
   "Store Name": "Abasto 2",
   "Longitude": -58.41,
   "Latitude": -34.6
 },
 {
   "Store Name": "Triunvirato",
   "Longitude": -58.48,
   "Latitude": -34.58
 },
 {
   "Store Name": "Pueyrredon",
   "Longitude": -58.4,
   "Latitude": -34.59
 },
 {
   "Store Name": "Lomitas",
   "Longitude": -58.4,
   "Latitude": -34.77
 },
 {
   "Store Name": "Panamericano",
   "Longitude": -58.49,
   "Latitude": -34.55
 },
 {
   "Store Name": "Caesar Park",
   "Longitude": -58.38,
   "Latitude": -34.6
 },
 {
   "Store Name": "Villa Crespo",
   "Longitude": -58.44,
   "Latitude": -34.6
 },
 {
   "Store Name": "Talcahuano",
   "Longitude": -58.39,
   "Latitude": -34.6
 },
 {
   "Store Name": "Migueletes",
   "Longitude": -58.44,
   "Latitude": -34.57
 },
 {
   "Store Name": "Village Caballito",
   "Longitude": -58.44,
   "Latitude": -34.62
 },
 {
   "Store Name": "Olazabal",
   "Longitude": -58.45,
   "Latitude": -34.55
 },
 {
   "Store Name": "Galerias II",
   "Longitude": -58.37,
   "Latitude": -34.6
 },
 {
   "Store Name": "La Barraca",
   "Longitude": -68.84,
   "Latitude": -32.89
 },
 {
   "Store Name": "Plaza Espana Mendoza",
   "Longitude": -68.84,
   "Latitude": -32.88
 },
 {
   "Store Name": "Mendoza Plaza Shopping",
   "Longitude": -68.78,
   "Latitude": -32.9
 },
 {
   "Store Name": "Espejo",
   "Longitude": -68.84,
   "Latitude": -32.89
 },
 {
   "Store Name": "Palmares Open Mall",
   "Longitude": -68.83,
   "Latitude": -32.92
 },
 {
   "Store Name": "Boulevard Orono.",
   "Longitude": -60.65,
   "Latitude": -32.94
 },
 {
   "Store Name": "Alto Rosario",
   "Longitude": -60.67,
   "Latitude": -32.93
 },
 {
   "Store Name": "Paseo del Siglo",
   "Longitude": -60.7,
   "Latitude": -32.96
 },
 {
   "Store Name": "Buen Pastor",
   "Longitude": -64.31,
   "Latitude": -31.32
 },
 {
   "Store Name": "Estrada",
   "Longitude": -64.2,
   "Latitude": -31.44
 },
 {
   "Store Name": "Canada",
   "Longitude": -64.19,
   "Latitude": -31.41
 },
 {
   "Store Name": "Dinosaurio Mall",
   "Longitude": -64.24,
   "Latitude": -31.36
 },
 {
   "Store Name": "Nuevocentro",
   "Longitude": -64.2,
   "Latitude": -31.41
 },
 {
   "Store Name": "Cordoba Shopping",
   "Longitude": -64.2,
   "Latitude": -31.44
 },
 {
   "Store Name": "SCS",
   "Longitude": 16.32,
   "Latitude": 48.11
 },
 {
   "Store Name": "Europark",
   "Longitude": 13.01,
   "Latitude": 47.82
 },
 {
   "Store Name": "Hagenauerplatz",
   "Longitude": 13.04,
   "Latitude": 47.8
 },
 {
   "Store Name": "Forum 1",
   "Longitude": 13.05,
   "Latitude": 47.81
 },
 {
   "Store Name": "Vienna Airport - landside (Kiosk)",
   "Longitude": 16.56,
   "Latitude": 48.13
 },
 {
   "Store Name": "Neubaugasse",
   "Longitude": 16.35,
   "Latitude": 48.2
 },
 {
   "Store Name": "Millennium City",
   "Longitude": 16.39,
   "Latitude": 48.24
 },
 {
   "Store Name": "Hauptbahnhof Wien",
   "Longitude": 16.38,
   "Latitude": 48.18
 },
 {
   "Store Name": "Braunerstrasse",
   "Longitude": 16.37,
   "Latitude": 48.21
 },
 {
   "Store Name": "Michaelerplatz",
   "Longitude": 16.37,
   "Latitude": 48.21
 },
 {
   "Store Name": "AKH Allgemeines Krankenhaus",
   "Longitude": 16.35,
   "Latitude": 48.22
 },
 {
   "Store Name": "Mariahilfer Strasse",
   "Longitude": 16.36,
   "Latitude": 48.2
 },
 {
   "Store Name": "Rotenturmstrasse",
   "Longitude": 16.38,
   "Latitude": 48.21
 },
 {
   "Store Name": "Invalidenstrasse",
   "Longitude": 16.39,
   "Latitude": 48.21
 },
 {
   "Store Name": "Donauzentrum",
   "Longitude": 16.43,
   "Latitude": 48.24
 },
 {
   "Store Name": "Westbahnhof",
   "Longitude": 16.34,
   "Latitude": 48.2
 },
 {
   "Store Name": "Schottengasse",
   "Longitude": 16.36,
   "Latitude": 48.21
 },
 {
   "Store Name": "Karlsplatzpassage",
   "Longitude": 16.37,
   "Latitude": 48.2
 },
 {
   "Store Name": "Manly",
   "Longitude": 151.29,
   "Latitude": -33.8
 },
 {
   "Store Name": "Mount Druitt",
   "Longitude": 150.82,
   "Latitude": -33.77
 },
 {
   "Store Name": "Westfield Parramatta",
   "Longitude": 151,
   "Latitude": -33.82
 },
 {
   "Store Name": "Haymarket",
   "Longitude": 151.21,
   "Latitude": -33.88
 },
 {
   "Store Name": "Queen Victoria Building",
   "Longitude": 151.21,
   "Latitude": -33.87
 },
 {
   "Store Name": "Wynyard Green",
   "Longitude": 151.21,
   "Latitude": -33.87
 },
 {
   "Store Name": "Hyde park",
   "Longitude": 151.21,
   "Latitude": -33.87
 },
 {
   "Store Name": "525 George Street",
   "Longitude": 151.21,
   "Latitude": -33.88
 },
 {
   "Store Name": "Westmead Childrens Hospital",
   "Longitude": 150.99,
   "Latitude": -33.8
 },
 {
   "Store Name": "Queens Plaza",
   "Longitude": 153.03,
   "Latitude": -27.47
 },
 {
   "Store Name": "Myer Centre",
   "Longitude": 153.02,
   "Latitude": -27.47
 },
 {
   "Store Name": "Broadbeach",
   "Longitude": 153.43,
   "Latitude": -28.03
 },
 {
   "Store Name": "Westfield Chermside",
   "Longitude": 153.03,
   "Latitude": -27.39
 },
 {
   "Store Name": "Cavill Avenue",
   "Longitude": 153.43,
   "Latitude": -28.01
 },
 {
   "Store Name": "Chevron Renaissance",
   "Longitude": 153.43,
   "Latitude": -28.02
 },
 {
   "Store Name": "Garden City - Upper Mt Gravatt",
   "Longitude": 153.09,
   "Latitude": -27.54
 },
 {
   "Store Name": "Princess Alexandra Hospital",
   "Longitude": 153.03,
   "Latitude": -27.5
 },
 {
   "Store Name": "235 Bourke Street",
   "Longitude": 144.97,
   "Latitude": -37.81
 },
 {
   "Store Name": "2 Elizabeth Street",
   "Longitude": 144.97,
   "Latitude": -37.82
 },
 {
   "Store Name": "DFO Spencer Street",
   "Longitude": 144.95,
   "Latitude": -37.82
 },
 {
   "Store Name": "Swanston Street",
   "Longitude": 144.97,
   "Latitude": -37.81
 },
 {
   "Store Name": "Galleria - Melbourne",
   "Longitude": 144.96,
   "Latitude": -37.81
 },
 {
   "Store Name": "Paseo Herencia",
   "Longitude": -70.04,
   "Latitude": 12.57
 },
 {
   "Store Name": "Renaissance Seaport Marketplace",
   "Longitude": -70.04,
   "Latitude": 12.52
 },
 {
   "Store Name": "Renaissance Mall - Aruba",
   "Longitude": -70.04,
   "Latitude": 12.52
 },
 {
   "Store Name": "Mall 28",
   "Longitude": 49.85,
   "Latitude": 40.38
 },
 {
   "Store Name": "Port Baku",
   "Longitude": 49.86,
   "Latitude": 40.38
 },
 {
   "Store Name": "Ganjlik Mall",
   "Longitude": 49.85,
   "Latitude": 40.4
 },
 {
   "Store Name": "TARGOVI",
   "Longitude": 48.9,
   "Latitude": 39.95
 },
 {
   "Store Name": "Brussels Schuman Metro Station",
   "Longitude": 4.38,
   "Latitude": 50.84
 },
 {
   "Store Name": "Brussels Louise Metro Station",
   "Longitude": 4.35,
   "Latitude": 50.83
 },
 {
   "Store Name": "Brussels - Gare du Midi (M)",
   "Longitude": 4.33,
   "Latitude": 50.83
 },
 {
   "Store Name": "Brussels Metro Station",
   "Longitude": 4.41,
   "Latitude": 50.84
 },
 {
   "Store Name": "Antwerp Groenplaats",
   "Longitude": 4.4,
   "Latitude": 51.22
 },
 {
   "Store Name": "Brussel Grand Place",
   "Longitude": 4.36,
   "Latitude": 50.84
 },
 {
   "Store Name": "Rogier Subway Station",
   "Longitude": 4.36,
   "Latitude": 50.85
 },
 {
   "Store Name": "Antwerp Centraal Railway Station",
   "Longitude": 4.42,
   "Latitude": 51.22
 },
 {
   "Store Name": "Bruges Railway Station",
   "Longitude": 3.19,
   "Latitude": 51.27
 },
 {
   "Store Name": "Brussels (CS)",
   "Longitude": 4.36,
   "Latitude": 50.85
 },
 {
   "Store Name": "Gent Sint Pieters Station",
   "Longitude": 3.72,
   "Latitude": 51.04
 },
 {
   "Store Name": "Gent Korenmarkt",
   "Longitude": 3.72,
   "Latitude": 51.05
 },
 {
   "Store Name": "Leuven Railway Station",
   "Longitude": 4.71,
   "Latitude": 50.88
 },
 {
   "Store Name": "Brussels North Station",
   "Longitude": 4.36,
   "Latitude": 50.86
 },
 {
   "Store Name": "Brussels Airport Depart. Hall",
   "Longitude": 4.49,
   "Latitude": 50.9
 },
 {
   "Store Name": "Brussels Airport Concourse A",
   "Longitude": 4.48,
   "Latitude": 50.87
 },
 {
   "Store Name": "Brussels Airport Concourse B",
   "Longitude": 4.48,
   "Latitude": 50.9
 },
 {
   "Store Name": "Liege Guillemins Station",
   "Longitude": 5.57,
   "Latitude": 50.63
 },
 {
   "Store Name": "Gare de Namur",
   "Longitude": 4.86,
   "Latitude": 50.47
 },
 {
   "Store Name": "Burgas Plaza Mall",
   "Longitude": 25.62,
   "Latitude": 42.42
 },
 {
   "Store Name": "Hermes Park",
   "Longitude": 23.43,
   "Latitude": 42.64
 },
 {
   "Store Name": "Paradise Mall",
   "Longitude": 23.32,
   "Latitude": 42.66
 },
 {
   "Store Name": "Sofia Gurko",
   "Longitude": 23.32,
   "Latitude": 42.7
 },
 {
   "Store Name": "Nansen and Levski",
   "Longitude": 23.32,
   "Latitude": 42.69
 },
 {
   "Store Name": "The Courtyard",
   "Longitude": 50.52,
   "Latitude": 26.21
 },
 {
   "Store Name": "Saar Mall",
   "Longitude": 50.59,
   "Latitude": 26.23
 },
 {
   "Store Name": "Enma Mall, Riffa",
   "Longitude": 50.6,
   "Latitude": 26.2
 },
 {
   "Store Name": "Cypress Garden",
   "Longitude": 50.58,
   "Latitude": 26.22
 },
 {
   "Store Name": "Nakheel Centre",
   "Longitude": 50.57,
   "Latitude": 26.21
 },
 {
   "Store Name": "El Mercado",
   "Longitude": 50.55,
   "Latitude": 26.22
 },
 {
   "Store Name": "Oasis Centre East Riffa",
   "Longitude": 50.59,
   "Latitude": 26.23
 },
 {
   "Store Name": "Marriott Juffair",
   "Longitude": 50.6,
   "Latitude": 26.22
 },
 {
   "Store Name": "Ø³ØªØ±Ø§Ù†Ø¯ Ø¨Ù„Ø§Ø²Ø§",
   "Longitude": 50.61,
   "Latitude": 26.21
 },
 {
   "Store Name": "Ù…Ø¬Ù…Ø¹ Ø§Ù„Ø¨Ø­Ø±ÙŠÙ†",
   "Longitude": 50.54,
   "Latitude": 26.23
 },
 {
   "Store Name": "Ø¨Ø§Ø¯ÙŠØ²",
   "Longitude": 50.58,
   "Latitude": 26.21
 },
 {
   "Store Name": "Ø­Ø¯ÙŠÙ‚Ø© Ù…Ø±ÙƒØ² Ø§Ù„Ø¯Ø¨Ù„ÙˆÙ…Ø§Ø³ÙŠ",
   "Longitude": 50.59,
   "Latitude": 26.24
 },
 {
   "Store Name": "Ø§Ù„Ø¨Ø­Ø±ÙŠÙ†, Ø³ÙŠØªÙŠ Ø³Ù†ØªØ±",
   "Longitude": 50.55,
   "Latitude": 26.23
 },
 {
   "Store Name": "Ù…Ø¬Ù…Ø¹ Ø§Ù„Ø³ÙŠÙ",
   "Longitude": 50.54,
   "Latitude": 26.23
 },
 {
   "Store Name": "Ù…Ø±ÙƒØ² Ø§Ù„Ù…Ù†Ø§Ù…Ø©",
   "Longitude": 50.58,
   "Latitude": 26.24
 },
 {
   "Store Name": "Ø¨Ø­Ø±ÙŠÙ†, Ø³ÙŠØªÙŠ Ø³Ù†ØªØ±, Ø¯Ø¨Ù†Ù‡Ø§Ù…Ø²",
   "Longitude": 50.55,
   "Latitude": 26.23
 },
 {
   "Store Name": "The Walk",
   "Longitude": 50.58,
   "Latitude": 26.22
 },
 {
   "Store Name": "Ø³Ù†Ø¯ (ÙŠÙ… ÙŠÙ…)",
   "Longitude": 50.58,
   "Latitude": 26.14
 },
 {
   "Store Name": "Muharraq Mall",
   "Longitude": 50.57,
   "Latitude": 26.23
 },
 {
   "Store Name": "Lagoons Amwaj Island",
   "Longitude": 50.61,
   "Latitude": 26.25
 },
 {
   "Store Name": "Ù…Ø·Ø§Ø± Ø§Ù„Ø¨Ø­Ø±ÙŠÙ† Ø¨ÙˆØ§Ø¨Ø© 16",
   "Longitude": 50.63,
   "Latitude": 26.27
 },
 {
   "Store Name": "KUALA BELAIT",
   "Longitude": 114.4,
   "Latitude": 4.3
 },
 {
   "Store Name": "Mabohai Shopping Mall",
   "Longitude": 114.94,
   "Latitude": 4.91
 },
 {
   "Store Name": "Mabohai Shopping Mall",
   "Longitude": 114.94,
   "Latitude": 4.91
 },
 {
   "Store Name": "Beribi Drive-Thru",
   "Longitude": 115,
   "Latitude": 5
 },
 {
   "Store Name": "Jalan Tutong",
   "Longitude": 114.73,
   "Latitude": 4.77
 },
 {
   "Store Name": "La Salle - Santa Cruz",
   "Longitude": -63.19,
   "Latitude": -17.75
 },
 {
   "Store Name": "Velarde",
   "Longitude": -63.18,
   "Latitude": -17.8
 },
 {
   "Store Name": "Las Brisas",
   "Longitude": -63.18,
   "Latitude": -17.75
 },
 {
   "Store Name": "Ventura Mall",
   "Longitude": -63.2,
   "Latitude": -17.75
 },
 {
   "Store Name": "Rua Moreira CÃ©sar",
   "Longitude": -43.11,
   "Latitude": -22.9
 },
 {
   "Store Name": "Plaza Niteroi Relo",
   "Longitude": -43.12,
   "Latitude": -22.9
 },
 {
   "Store Name": "Plaza Niteroi 2",
   "Longitude": -43.12,
   "Latitude": -22.9
 },
 {
   "Store Name": "Shopping da Gavea",
   "Longitude": -43.23,
   "Latitude": -22.98
 },
 {
   "Store Name": "Aeroporto Galeao Mezanino",
   "Longitude": -43.25,
   "Latitude": -22.81
 },
 {
   "Store Name": "Assembleia x Carmo",
   "Longitude": -43.18,
   "Latitude": -22.9
 },
 {
   "Store Name": "Visconde de Piraja",
   "Longitude": -43.2,
   "Latitude": -22.98
 },
 {
   "Store Name": "Ataulfo de Paiva 313",
   "Longitude": -43.22,
   "Latitude": -22.98
 },
 {
   "Store Name": "Shopping Rio Sul",
   "Longitude": -43.18,
   "Latitude": -22.96
 },
 {
   "Store Name": "Botafogo Praia Shopping",
   "Longitude": -43.18,
   "Latitude": -22.95
 },
 {
   "Store Name": "Shopping Tijuca",
   "Longitude": -43.24,
   "Latitude": -22.92
 },
 {
   "Store Name": "New York City Center",
   "Longitude": -43.36,
   "Latitude": -23
 },
 {
   "Store Name": "Norte Shopping",
   "Longitude": -43.28,
   "Latitude": -22.89
 },
 {
   "Store Name": "Shopping Nova America 2",
   "Longitude": -43.27,
   "Latitude": -22.88
 },
 {
   "Store Name": "Goncalves Dias",
   "Longitude": -43.18,
   "Latitude": -22.9
 },
 {
   "Store Name": "Cinema Odeon",
   "Longitude": -43.18,
   "Latitude": -22.91
 },
 {
   "Store Name": "Miguel Couto",
   "Longitude": -43.18,
   "Latitude": -22.9
 },
 {
   "Store Name": "Edificio Argentina",
   "Longitude": -43.18,
   "Latitude": -22.94
 },
 {
   "Store Name": "Shopping Via Parque",
   "Longitude": -43.36,
   "Latitude": -22.98
 },
 {
   "Store Name": "Downtown Shopping",
   "Longitude": -43.32,
   "Latitude": -23
 },
 {
   "Store Name": "Nossa Senhora de Copacabana",
   "Longitude": -43.19,
   "Latitude": -22.98
 },
 {
   "Store Name": "Shopping Leblon Kiosk",
   "Longitude": -43.22,
   "Latitude": -22.98
 },
 {
   "Store Name": "Barra Shopping 3",
   "Longitude": -43.36,
   "Latitude": -23
 },
 {
   "Store Name": "Shopping Plaza Sul",
   "Longitude": -46.63,
   "Latitude": -23.62
 },
 {
   "Store Name": "Shopping Tambore",
   "Longitude": -46.83,
   "Latitude": -23.5
 },
 {
   "Store Name": "Bauru Shopping",
   "Longitude": -49.05,
   "Latitude": -22.34
 },
 {
   "Store Name": "Parque D. Pedro Shopping",
   "Longitude": -47.06,
   "Latitude": -22.85
 },
 {
   "Store Name": "Campinas Shopping",
   "Longitude": -47.08,
   "Latitude": -22.93
 },
 {
   "Store Name": "Aer. Intl. Viracopos Desembarque",
   "Longitude": -47.14,
   "Latitude": -23.01
 },
 {
   "Store Name": "Aer. Intl. Viracopos Embarque",
   "Longitude": -47.15,
   "Latitude": -23.01
 },
 {
   "Store Name": "Cambui",
   "Longitude": -47.05,
   "Latitude": -22.9
 },
 {
   "Store Name": "Shopping Iguatemi Campinas",
   "Longitude": -47.03,
   "Latitude": -22.89
 },
 {
   "Store Name": "Galleria Shopping",
   "Longitude": -47.02,
   "Latitude": -22.86
 },
 {
   "Store Name": "Aero Intl GRU TermII Mezzanine",
   "Longitude": -46.49,
   "Latitude": -23.43
 },
 {
   "Store Name": "Aero Guarulhos Term II Sup Finger",
   "Longitude": -46.49,
   "Latitude": -23.43
 },
 {
   "Store Name": "Aeroporto Intl Guarulhos III",
   "Longitude": -46.48,
   "Latitude": -23.43
 },
 {
   "Store Name": "Shopping Intl de Guarulhos Kiosk",
   "Longitude": -46.55,
   "Latitude": -23.49
 },
 {
   "Store Name": "Parque Shopping Maia B",
   "Longitude": -46.54,
   "Latitude": -23.44
 },
 {
   "Store Name": "Aero Intl GRU TermII Praca",
   "Longitude": -46.48,
   "Latitude": -23.43
 },
 {
   "Store Name": "Shopping Piracicaba",
   "Longitude": -47.65,
   "Latitude": -22.7
 },
 {
   "Store Name": "Iguatemi Ribeirao Preto",
   "Longitude": -47.87,
   "Latitude": -21.18
 },
 {
   "Store Name": "Ribeirao Shopping Store 2",
   "Longitude": -47.82,
   "Latitude": -21.21
 },
 {
   "Store Name": "Ribeirao Shop Quiosque Expansao C&C",
   "Longitude": -47.81,
   "Latitude": -21.21
 },
 {
   "Store Name": "Shopping ABC",
   "Longitude": -46.53,
   "Latitude": -23.67
 },
 {
   "Store Name": "Praiamar Shopping",
   "Longitude": -46.31,
   "Latitude": -23.98
 },
 {
   "Store Name": "Sao Bernado Plaza Shopping",
   "Longitude": -46.54,
   "Latitude": -23.73
 },
 {
   "Store Name": "Shopping Metropole  Saraiva",
   "Longitude": -46.55,
   "Latitude": -23.69
 },
 {
   "Store Name": "Park Shopping SÃ£o Caetano",
   "Longitude": -46.58,
   "Latitude": -23.63
 },
 {
   "Store Name": "Colinas Shopping",
   "Longitude": -45.89,
   "Latitude": -23.19
 },
 {
   "Store Name": "Center Vale Shopping",
   "Longitude": -45.88,
   "Latitude": -23.2
 },
 {
   "Store Name": "Rio Preto Shopping",
   "Longitude": -49.4,
   "Latitude": -20.84
 },
 {
   "Store Name": "Iguatemi Rio Preto",
   "Longitude": -49.39,
   "Latitude": -20.84
 },
 {
   "Store Name": "Vale Sul 2",
   "Longitude": -45.89,
   "Latitude": -23.22
 },
 {
   "Store Name": "Hospital Beneficencia Portuguesa",
   "Longitude": -46.64,
   "Latitude": -23.57
 },
 {
   "Store Name": "Aeroporto de Congonhas Cafe",
   "Longitude": -46.66,
   "Latitude": -23.63
 },
 {
   "Store Name": "Shopping Center 3",
   "Longitude": -46.66,
   "Latitude": -23.56
 },
 {
   "Store Name": "CCP Shopping Cidade Sao Paulo",
   "Longitude": -46.65,
   "Latitude": -23.56
 },
 {
   "Store Name": "Pavao, 667",
   "Longitude": -46.67,
   "Latitude": -23.61
 },
 {
   "Store Name": "Metro Santa Cruz Store 2",
   "Longitude": -46.64,
   "Latitude": -23.6
 },
 {
   "Store Name": "Haddock Lobo",
   "Longitude": -46.66,
   "Latitude": -23.56
 },
 {
   "Store Name": "Shopping MetrÃ´ Boulevard TatuapÃ©",
   "Longitude": -46.58,
   "Latitude": -23.54
 },
 {
   "Store Name": "Shopping Metro Tucuruvi",
   "Longitude": -46.6,
   "Latitude": -23.48
 },
 {
   "Store Name": "Paulista 2026",
   "Longitude": -46.66,
   "Latitude": -23.56
 },
 {
   "Store Name": "Berrini",
   "Longitude": -46.69,
   "Latitude": -23.6
 },
 {
   "Store Name": "Shopping Center Norte",
   "Longitude": -46.62,
   "Latitude": -23.52
 },
 {
   "Store Name": "Paulista 500",
   "Longitude": -46.65,
   "Latitude": -23.57
 },
 {
   "Store Name": "Bourbon Shopping",
   "Longitude": -46.68,
   "Latitude": -23.53
 },
 {
   "Store Name": "Shopping Villa Lobos",
   "Longitude": -46.72,
   "Latitude": -23.55
 },
 {
   "Store Name": "E-business",
   "Longitude": -46.71,
   "Latitude": -23.51
 },
 {
   "Store Name": "Metro Tatuape",
   "Longitude": -46.58,
   "Latitude": -23.54
 },
 {
   "Store Name": "Shopping Paulista Saraiva",
   "Longitude": -46.64,
   "Latitude": -23.57
 },
 {
   "Store Name": "Shopping Frei Caneca Kiosk",
   "Longitude": -46.65,
   "Latitude": -23.55
 },
 {
   "Store Name": "Jundiai Shopping",
   "Longitude": -46.89,
   "Latitude": -23.2
 },
 {
   "Store Name": "Desembargador Eliseu Guilherme",
   "Longitude": -46.64,
   "Latitude": -23.57
 },
 {
   "Store Name": "Shopping Metro Itaquera",
   "Longitude": -46.47,
   "Latitude": -23.54
 },
 {
   "Store Name": "Anhembi Morumbi Centro",
   "Longitude": -46.61,
   "Latitude": -23.55
 },
 {
   "Store Name": "Rua Augusta, 1987",
   "Longitude": -46.66,
   "Latitude": -23.56
 },
 {
   "Store Name": "Shopping HigienÃ³polis",
   "Longitude": -46.66,
   "Latitude": -23.54
 },
 {
   "Store Name": "Brascan Open Mall",
   "Longitude": -46.68,
   "Latitude": -23.58
 },
 {
   "Store Name": "CENU",
   "Longitude": -46.7,
   "Latitude": -23.61
 },
 {
   "Store Name": "Tiete Plaza",
   "Longitude": -46.72,
   "Latitude": -23.51
 },
 {
   "Store Name": "Shopping Analia Franco",
   "Longitude": -46.56,
   "Latitude": -23.56
 },
 {
   "Store Name": "Rua Lavandisca",
   "Longitude": -46.66,
   "Latitude": -23.6
 },
 {
   "Store Name": "Manoel da Nobrega",
   "Longitude": -46.65,
   "Latitude": -23.57
 },
 {
   "Store Name": "Alameda Santos",
   "Longitude": -46.65,
   "Latitude": -23.57
 },
 {
   "Store Name": "Market Place",
   "Longitude": -46.7,
   "Latitude": -23.62
 },
 {
   "Store Name": "Top Center Shopping",
   "Longitude": -46.65,
   "Latitude": -23.57
 },
 {
   "Store Name": "Praca da Republica",
   "Longitude": -46.64,
   "Latitude": -23.55
 },
 {
   "Store Name": "Shopping Ibirapuera",
   "Longitude": -46.67,
   "Latitude": -23.61
 },
 {
   "Store Name": "SP Market",
   "Longitude": -46.7,
   "Latitude": -23.68
 },
 {
   "Store Name": "Morumbi Shopping New Wing",
   "Longitude": -46.7,
   "Latitude": -23.62
 },
 {
   "Store Name": "Universidade Mackenzie",
   "Longitude": -46.65,
   "Latitude": -23.55
 },
 {
   "Store Name": "RochaVera",
   "Longitude": -46.7,
   "Latitude": -23.62
 },
 {
   "Store Name": "JK Mall",
   "Longitude": -46.69,
   "Latitude": -23.59
 },
 {
   "Store Name": "Rua Joao Saad",
   "Longitude": -46.72,
   "Latitude": -23.59
 },
 {
   "Store Name": "Trianon Paulista",
   "Longitude": -46.66,
   "Latitude": -23.56
 },
 {
   "Store Name": "Gomes de Carvalho",
   "Longitude": -46.69,
   "Latitude": -23.59
 },
 {
   "Store Name": "Mooca Plaza Shopping",
   "Longitude": -46.59,
   "Latitude": -23.58
 },
 {
   "Store Name": "Universidade Anhembi - Vila Olimpia",
   "Longitude": -46.68,
   "Latitude": -23.6
 },
 {
   "Store Name": "Morumbi Shopping Saraiva",
   "Longitude": -46.7,
   "Latitude": -23.62
 },
 {
   "Store Name": "Bandeira Paulista",
   "Longitude": -46.68,
   "Latitude": -23.58
 },
 {
   "Store Name": "Iguatemi Sorocaba",
   "Longitude": -47.46,
   "Latitude": -23.53
 },
 {
   "Store Name": "Nassau Airport",
   "Longitude": -77.45,
   "Latitude": 25.03
 },
 {
   "Store Name": "Sheraton Cable Beach Resort",
   "Longitude": -77.47,
   "Latitude": 25.07
 },
 {
   "Store Name": "Reef Atlantis",
   "Longitude": -77.33,
   "Latitude": 25.09
 },
 {
   "Store Name": "Palmdale RCA Building",
   "Longitude": -77.33,
   "Latitude": 25.07
 },
 {
   "Store Name": "Charlotte Street",
   "Longitude": -77.34,
   "Latitude": 25.08
 },
 {
   "Store Name": "Cable Cottage",
   "Longitude": -77.39,
   "Latitude": 25.07
 },
 {
   "Store Name": "Atlantis #2",
   "Longitude": -77.46,
   "Latitude": 25.06
 },
 {
   "Store Name": "Atlantis - Mayan Temple Pool Deck",
   "Longitude": -77.32,
   "Latitude": 25.09
 },
 {
   "Store Name": "Marina Village at Atlantis",
   "Longitude": -77.32,
   "Latitude": 25.08
 },
 {
   "Store Name": "Harbour Bay",
   "Longitude": -77.32,
   "Latitude": 25.07
 },
 {
   "Store Name": "Kingsview Market",
   "Longitude": -113.99,
   "Latitude": 51.27
 },
 {
   "Store Name": "Sierra Springs",
   "Longitude": -114,
   "Latitude": 51.27
 },
 {
   "Store Name": "Tower Lane Mall",
   "Longitude": -114.01,
   "Latitude": 51.29
 },
 {
   "Store Name": "Safeway-Airdrie #281",
   "Longitude": -114.01,
   "Latitude": 51.3
 },
 {
   "Store Name": "Dickson Crossing",
   "Longitude": -114.01,
   "Latitude": 51.3
 },
 {
   "Store Name": "Save On Foods East Airdrie",
   "Longitude": -113.99,
   "Latitude": 51.27
 },
 {
   "Store Name": "Banff Avenue Mall",
   "Longitude": -115.57,
   "Latitude": 51.18
 },
 {
   "Store Name": "Safeway - Banff #208",
   "Longitude": -115.57,
   "Latitude": 51.18
 },
 {
   "Store Name": "Brewsters @ Banff Gondola",
   "Longitude": -115.56,
   "Latitude": 51.15
 },
 {
   "Store Name": "Gallerie Beaumnont",
   "Longitude": -113.42,
   "Latitude": 53.36
 },
 {
   "Store Name": "Safeway - Brooks #852",
   "Longitude": -111.9,
   "Latitude": 50.57
 },
 {
   "Store Name": "The Bow",
   "Longitude": -114.06,
   "Latitude": 51.05
 },
 {
   "Store Name": "Genco Place",
   "Longitude": -114.07,
   "Latitude": 51.04
 },
 {
   "Store Name": "Teavana - Calgary Eaton Centre",
   "Longitude": -114.07,
   "Latitude": 51.05
 },
 {
   "Store Name": "Sunterra Mkt - TransCanada Tower",
   "Longitude": -114.07,
   "Latitude": 51.05
 },
 {
   "Store Name": "Western Canada Place",
   "Longitude": -114.08,
   "Latitude": 51.05
 },
 {
   "Store Name": "Inglewood - 11th ST SE and 9th Ave",
   "Longitude": -114.04,
   "Latitude": 51.04
 },
 {
   "Store Name": "Safeway - Calgary #221",
   "Longitude": -114.12,
   "Latitude": 51.09
 },
 {
   "Store Name": "HMS HOST @ YYC Departures Internati",
   "Longitude": -114.01,
   "Latitude": 51.13
 },
 {
   "Store Name": "Safeway-Calgary #292",
   "Longitude": -114.07,
   "Latitude": 50.97
 },
 {
   "Store Name": "Huntington Hills",
   "Longitude": -114.07,
   "Latitude": 51.12
 },
 {
   "Store Name": "Safeway - Calgary 2243",
   "Longitude": -114.07,
   "Latitude": 51.1
 },
 {
   "Store Name": "Douglas Square",
   "Longitude": -114,
   "Latitude": 50.95
 },
 {
   "Store Name": "Brentwood Village NW",
   "Longitude": -114.13,
   "Latitude": 51.09
 },
 {
   "Store Name": "Teavana - Chinook Centre",
   "Longitude": -114.07,
   "Latitude": 51
 },
 {
   "Store Name": "Tuscany Drive Market",
   "Longitude": -114.25,
   "Latitude": 51.12
 },
 {
   "Store Name": "Safeway-Calgary #293",
   "Longitude": -114.07,
   "Latitude": 50.91
 },
 {
   "Store Name": "Jamieson Place SW",
   "Longitude": -114.07,
   "Latitude": 51.05
 },
 {
   "Store Name": "Beacon Hill - Sarcee & 112th Ave",
   "Longitude": -114.16,
   "Latitude": 51.16
 },
 {
   "Store Name": "Teavana - Sunridge Mall",
   "Longitude": -113.98,
   "Latitude": 51.07
 },
 {
   "Store Name": "Deer Valley Marketplace",
   "Longitude": -114.03,
   "Latitude": 50.93
 },
 {
   "Store Name": "YYC-Calgary International Arrivals",
   "Longitude": -114.01,
   "Latitude": 51.13
 },
 {
   "Store Name": "Shepard Centre Indigo",
   "Longitude": -113.96,
   "Latitude": 50.93
 },
 {
   "Store Name": "Safeway - Calgary #212",
   "Longitude": -114.08,
   "Latitude": 51.04
 },
 {
   "Store Name": "Delta Bow Valley",
   "Longitude": -114.06,
   "Latitude": 51.05
 },
 {
   "Store Name": "Nexen Building",
   "Longitude": -114.08,
   "Latitude": 51.05
 },
 {
   "Store Name": "Suncor Plus +15",
   "Longitude": -114.06,
   "Latitude": 51.05
 },
 {
   "Store Name": "Silverado Marketplace",
   "Longitude": -114.07,
   "Latitude": 50.88
 },
 {
   "Store Name": "85th St & 9th Ave SW",
   "Longitude": -114.21,
   "Latitude": 51.06
 },
 {
   "Store Name": "The Core",
   "Longitude": -114.07,
   "Latitude": 51.05
 },
 {
   "Store Name": "Safeway-Calgary #2000",
   "Longitude": -113.95,
   "Latitude": 51.12
 },
 {
   "Store Name": "Gates of Walden",
   "Longitude": -114.04,
   "Latitude": 50.88
 },
 {
   "Store Name": "Sunterra Westmarket",
   "Longitude": -114.17,
   "Latitude": 51.04
 },
 {
   "Store Name": "Sunterra @ Westjet Offices",
   "Longitude": -114.01,
   "Latitude": 51.12
 },
 {
   "Store Name": "Crowfoot Chapters",
   "Longitude": -114.2,
   "Latitude": 51.13
 },
 {
   "Store Name": "Safeway - Calgary #202",
   "Longitude": -113.98,
   "Latitude": 51.05
 },
 {
   "Store Name": "Willow Park Village",
   "Longitude": -114.07,
   "Latitude": 50.96
 },
 {
   "Store Name": "Bankers Hall Plus +15",
   "Longitude": -114.07,
   "Latitude": 51.05
 },
 {
   "Store Name": "Westhills",
   "Longitude": -114.17,
   "Latitude": 51.01
 },
 {
   "Store Name": "Centre St & 9 Ave N",
   "Longitude": -114.06,
   "Latitude": 51.06
 },
 {
   "Store Name": "Coventry Hills",
   "Longitude": -114.06,
   "Latitude": 51.16
 },
 {
   "Store Name": "Britannia",
   "Longitude": -114.08,
   "Latitude": 51.01
 },
 {
   "Store Name": "Glenmore Landing",
   "Longitude": -114.1,
   "Latitude": 50.97
 },
 {
   "Store Name": "Safeway - Calgary #263",
   "Longitude": -114.06,
   "Latitude": 51.07
 },
 {
   "Store Name": "The Bridges",
   "Longitude": -114.04,
   "Latitude": 51.05
 },
 {
   "Store Name": "Safeway - Calgary #2211",
   "Longitude": -114.1,
   "Latitude": 51.06
 },
 {
   "Store Name": "YYC Calg N Processor, Retail Hall",
   "Longitude": -114.01,
   "Latitude": 51.13
 },
 {
   "Store Name": "Northland Plaza",
   "Longitude": -114.14,
   "Latitude": 51.1
 },
 {
   "Store Name": "Kensington",
   "Longitude": -114.09,
   "Latitude": 51.05
 },
 {
   "Store Name": "Safeway-Calgary #2704",
   "Longitude": -113.96,
   "Latitude": 50.93
 },
 {
   "Store Name": "Safeway - Calgary #287",
   "Longitude": -114.06,
   "Latitude": 50.95
 },
 {
   "Store Name": "Calgary House",
   "Longitude": -114.07,
   "Latitude": 51.05
 },
 {
   "Store Name": "Safeway - Calgary #276",
   "Longitude": -114.01,
   "Latitude": 50.98
 },
 {
   "Store Name": "Bankview",
   "Longitude": -114.1,
   "Latitude": 51.03
 },
 {
   "Store Name": "East Hills",
   "Longitude": -113.91,
   "Latitude": 51.04
 },
 {
   "Store Name": "Gateway South Chapters",
   "Longitude": -114.07,
   "Latitude": 50.91
 },
 {
   "Store Name": "4 St & 23 Ave SW",
   "Longitude": -114.07,
   "Latitude": 51.03
 },
 {
   "Store Name": "YYC Calgary Central Hall FB",
   "Longitude": -114.01,
   "Latitude": 51.13
 },
 {
   "Store Name": "HMS HOST @ YYC Departures Transbord",
   "Longitude": -114.01,
   "Latitude": 51.13
 },
 {
   "Store Name": "Sundance",
   "Longitude": -114.06,
   "Latitude": 50.9
 },
 {
   "Store Name": "Newport Village",
   "Longitude": -114.07,
   "Latitude": 50.97
 },
 {
   "Store Name": "Sarcee Plaza 37St & 45Ave SW",
   "Longitude": -114.14,
   "Latitude": 51.01
 },
 {
   "Store Name": "Kingsland Plaza",
   "Longitude": -114.08,
   "Latitude": 50.99
 },
 {
   "Store Name": "London Towne Square",
   "Longitude": -113.98,
   "Latitude": 51.08
 },
 {
   "Store Name": "Chinook Chapters",
   "Longitude": -114.07,
   "Latitude": 51
 },
 {
   "Store Name": "Southcentre",
   "Longitude": -114.06,
   "Latitude": 50.95
 },
 {
   "Store Name": "Deerfoot Meadows",
   "Longitude": -114.04,
   "Latitude": 50.98
 },
 {
   "Store Name": "Marda Loop",
   "Longitude": -114.11,
   "Latitude": 51.02
 },
 {
   "Store Name": "Scotia Centre",
   "Longitude": -114.07,
   "Latitude": 51.05
 },
 {
   "Store Name": "YYC Calgary Term A",
   "Longitude": -114.01,
   "Latitude": 51.13
 },
 {
   "Store Name": "52St & McIvor Blvd SE",
   "Longitude": -113.95,
   "Latitude": 50.91
 },
 {
   "Store Name": "Safeway - Calgary #2730",
   "Longitude": -114.14,
   "Latitude": 51.02
 },
 {
   "Store Name": "Safeway-Calgary #291",
   "Longitude": -114.16,
   "Latitude": 51.11
 },
 {
   "Store Name": "Aspen Landing",
   "Longitude": -114.21,
   "Latitude": 51.04
 },
 {
   "Store Name": "Millrise Centre",
   "Longitude": -114.07,
   "Latitude": 50.91
 },
 {
   "Store Name": "16th Ave & 11 Street NW",
   "Longitude": -114.09,
   "Latitude": 51.07
 },
 {
   "Store Name": "Safeway-Calgary #288",
   "Longitude": -114.1,
   "Latitude": 50.97
 },
 {
   "Store Name": "Southtrail",
   "Longitude": -113.97,
   "Latitude": 50.93
 },
 {
   "Store Name": "Signal Hill Indigo",
   "Longitude": -114.17,
   "Latitude": 51.02
 },
 {
   "Store Name": "Elbow & Southland",
   "Longitude": -114.08,
   "Latitude": 50.96
 },
 {
   "Store Name": "Safeway Calgary - #227",
   "Longitude": -114.16,
   "Latitude": 51.08
 },
 {
   "Store Name": "Safeway - Calgary #296",
   "Longitude": -114.17,
   "Latitude": 51.01
 },
 {
   "Store Name": "Keynote Center",
   "Longitude": -114.06,
   "Latitude": 51.04
 },
 {
   "Store Name": "YYC Gate a16",
   "Longitude": -114.01,
   "Latitude": 51.13
 },
 {
   "Store Name": "Westbrook Mall",
   "Longitude": -114.14,
   "Latitude": 51.04
 },
 {
   "Store Name": "Market Mall East",
   "Longitude": -114.15,
   "Latitude": 51.08
 },
 {
   "Store Name": "Creekside",
   "Longitude": -114.13,
   "Latitude": 51.16
 },
 {
   "Store Name": "The Westin Calgary",
   "Longitude": -114.07,
   "Latitude": 51.05
 },
 {
   "Store Name": "Devon Tower",
   "Longitude": -114.07,
   "Latitude": 51.05
 },
 {
   "Store Name": "8th Avenue Place",
   "Longitude": -114.07,
   "Latitude": 51.05
 },
 {
   "Store Name": "Panorama Hills",
   "Longitude": -114.07,
   "Latitude": 51.15
 },
 {
   "Store Name": "Safeway - Calgary #294",
   "Longitude": -114.07,
   "Latitude": 51.13
 },
 {
   "Store Name": "Hotel Arts",
   "Longitude": -114.07,
   "Latitude": 51.04
 },
 {
   "Store Name": "McKnight Blvd & Avation Rd",
   "Longitude": -114.03,
   "Latitude": 51.1
 },
 {
   "Store Name": "Royal Oak",
   "Longitude": -114.21,
   "Latitude": 51.15
 },
 {
   "Store Name": "Safeway-Calgary #280",
   "Longitude": -114.12,
   "Latitude": 50.94
 },
 {
   "Store Name": "Country Hills",
   "Longitude": -114.16,
   "Latitude": 51.14
 },
 {
   "Store Name": "Market Mall SC West",
   "Longitude": -114.16,
   "Latitude": 51.09
 },
 {
   "Store Name": "Teavana - Market Mall",
   "Longitude": -114.16,
   "Latitude": 51.08
 },
 {
   "Store Name": "Safeway - Calgary #285",
   "Longitude": -114.2,
   "Latitude": 51.13
 },
 {
   "Store Name": "Quarry Park",
   "Longitude": -114.01,
   "Latitude": 50.96
 },
 {
   "Store Name": "Safeway-Calgary #874",
   "Longitude": -114.21,
   "Latitude": 51.04
 },
 {
   "Store Name": "17 Avenue SW",
   "Longitude": -114.08,
   "Latitude": 51.04
 },
 {
   "Store Name": "U of Calgary - Seasons Bookstore",
   "Longitude": -114.13,
   "Latitude": 51.07
 },
 {
   "Store Name": "HMS HOST @ YYC Arrivals Internation",
   "Longitude": -114.01,
   "Latitude": 51.13
 },
 {
   "Store Name": "U of Calgary-Yamnuska Hall",
   "Longitude": -114.13,
   "Latitude": 51.07
 },
 {
   "Store Name": "Teavana - Marlborough Mall",
   "Longitude": -113.98,
   "Latitude": 51.06
 },
 {
   "Store Name": "Intact Place",
   "Longitude": -114.07,
   "Latitude": 51.05
 },
 {
   "Store Name": "Bankers Hall Main floor",
   "Longitude": -114.07,
   "Latitude": 51.05
 },
 {
   "Store Name": "Compass @ Southern Alberta Institut",
   "Longitude": -114.09,
   "Latitude": 51.06
 },
 {
   "Store Name": "Evergreen",
   "Longitude": -114.11,
   "Latitude": 50.91
 },
 {
   "Store Name": "Save On Foods - Seton",
   "Longitude": -113.95,
   "Latitude": 50.88
 },
 {
   "Store Name": "Bow Valley Square",
   "Longitude": -114.07,
   "Latitude": 51.05
 },
 {
   "Store Name": "Safeway - Calgary #2117",
   "Longitude": -114.12,
   "Latitude": 51.02
 },
 {
   "Store Name": "Livingston Place",
   "Longitude": -114.07,
   "Latitude": 51.05
 },
 {
   "Store Name": "Atrium 1 - 5th Ave & 8th St",
   "Longitude": -114.08,
   "Latitude": 51.05
 },
 {
   "Store Name": "Safeway-Calgary #2222",
   "Longitude": -114.17,
   "Latitude": 51.07
 },
 {
   "Store Name": "Calgary Marriott",
   "Longitude": -114.06,
   "Latitude": 51.04
 },
 {
   "Store Name": "Memorial & Edmonton Trail",
   "Longitude": -114.05,
   "Latitude": 51.05
 },
 {
   "Store Name": "Sunridge Mall - Level 1",
   "Longitude": -113.98,
   "Latitude": 51.07
 },
 {
   "Store Name": "Univeristy of Calgary, Crowsnest",
   "Longitude": -114.13,
   "Latitude": 51.07
 },
 {
   "Store Name": "Dalhousie Station Chapters",
   "Longitude": -114.16,
   "Latitude": 51.1
 },
 {
   "Store Name": "Bowfort Road",
   "Longitude": -114.21,
   "Latitude": 51.08
 },
 {
   "Store Name": "Wellington Square",
   "Longitude": -114.09,
   "Latitude": 51.04
 },
 {
   "Store Name": "Sunridge Chapters",
   "Longitude": -113.99,
   "Latitude": 51.08
 },
 {
   "Store Name": "Suncor main floor",
   "Longitude": -114.06,
   "Latitude": 51.05
 },
 {
   "Store Name": "Chinook North",
   "Longitude": -114.07,
   "Latitude": 51
 },
 {
   "Store Name": "The District",
   "Longitude": -114.03,
   "Latitude": 51.15
 },
 {
   "Store Name": "12 Ave & 8th Street SW",
   "Longitude": -114.08,
   "Latitude": 51.04
 },
 {
   "Store Name": "Fairmont Palliser Calgary",
   "Longitude": -114.06,
   "Latitude": 51.04
 },
 {
   "Store Name": "Crowfoot Village",
   "Longitude": -114.2,
   "Latitude": 51.13
 },
 {
   "Store Name": "Safeway - Camrose #821",
   "Longitude": -112.86,
   "Latitude": 53.02
 },
 {
   "Store Name": "Camrose",
   "Longitude": -112.86,
   "Latitude": 53.02
 },
 {
   "Store Name": "Mountain Side Village",
   "Longitude": -115.36,
   "Latitude": 51.09
 },
 {
   "Store Name": "Safeway - Canmore #2244",
   "Longitude": -115.36,
   "Latitude": 51.09
 },
 {
   "Store Name": "Chestermere Station",
   "Longitude": -113.83,
   "Latitude": 51.05
 },
 {
   "Store Name": "Safeway-Chestermere #2731",
   "Longitude": -113.82,
   "Latitude": 51.05
 },
 {
   "Store Name": "Cochrane City Centre",
   "Longitude": -114.47,
   "Latitude": 51.19
 },
 {
   "Store Name": "Safeway - Cochrane #2219",
   "Longitude": -114.48,
   "Latitude": 51.19
 },
 {
   "Store Name": "111 St & Ellerslie Rd",
   "Longitude": -113.51,
   "Latitude": 53.42
 },
 {
   "Store Name": "Sherwood Park Chapters",
   "Longitude": -113.29,
   "Latitude": 53.53
 },
 {
   "Store Name": "Safeway-Edmonton #861",
   "Longitude": -113.46,
   "Latitude": 53.52
 },
 {
   "Store Name": "Calgary Trail South",
   "Longitude": -113.5,
   "Latitude": 53.49
 },
 {
   "Store Name": "Safeway - Edmonton #808",
   "Longitude": -113.47,
   "Latitude": 53.57
 },
 {
   "Store Name": "Grand Villa Casino",
   "Longitude": -113.49,
   "Latitude": 53.55
 },
 {
   "Store Name": "HSBC Bank Place",
   "Longitude": -113.49,
   "Latitude": 53.54
 },
 {
   "Store Name": "Edmonton City Centre",
   "Longitude": -113.49,
   "Latitude": 53.54
 },
 {
   "Store Name": "Matrix Hotel",
   "Longitude": -113.5,
   "Latitude": 53.54
 },
 {
   "Store Name": "Strathcona Chapters",
   "Longitude": -113.5,
   "Latitude": 53.52
 },
 {
   "Store Name": "University of Alberta Engineering",
   "Longitude": -113.53,
   "Latitude": 53.53
 },
 {
   "Store Name": "Indigo - Northtown Mall",
   "Longitude": -113.49,
   "Latitude": 53.6
 },
 {
   "Store Name": "Jasper Ave & 109 St",
   "Longitude": -113.51,
   "Latitude": 53.54
 },
 {
   "Store Name": "170th St & 100th Ave",
   "Longitude": -113.62,
   "Latitude": 53.54
 },
 {
   "Store Name": "Save on Foods - Lewis Estates",
   "Longitude": -113.64,
   "Latitude": 53.52
 },
 {
   "Store Name": "Safeway - Edmonton #841",
   "Longitude": -113.49,
   "Latitude": 53.6
 },
 {
   "Store Name": "High Street",
   "Longitude": -113.54,
   "Latitude": 53.54
 },
 {
   "Store Name": "104th Ave.&112th St.",
   "Longitude": -113.51,
   "Latitude": 53.55
 },
 {
   "Store Name": "Oxford Park",
   "Longitude": -113.54,
   "Latitude": 53.62
 },
 {
   "Store Name": "Wolf Willow",
   "Longitude": -113.61,
   "Latitude": 53.5
 },
 {
   "Store Name": "Centre For Applied Technology",
   "Longitude": -113.5,
   "Latitude": 53.57
 },
 {
   "Store Name": "Kingsway Ave & 117St",
   "Longitude": -113.52,
   "Latitude": 53.57
 },
 {
   "Store Name": "Safeway - Edmonton #809",
   "Longitude": -113.52,
   "Latitude": 53.55
 },
 {
   "Store Name": "Safeway - Edmonton #845",
   "Longitude": -113.43,
   "Latitude": 53.54
 },
 {
   "Store Name": "Tamarack",
   "Longitude": -113.37,
   "Latitude": 53.48
 },
 {
   "Store Name": "South Pointe Chapters",
   "Longitude": -113.49,
   "Latitude": 53.46
 },
 {
   "Store Name": "Commerce Place",
   "Longitude": -113.5,
   "Latitude": 53.54
 },
 {
   "Store Name": "College Plaza",
   "Longitude": -113.52,
   "Latitude": 53.52
 },
 {
   "Store Name": "Teavana - West Edmonton",
   "Longitude": -113.62,
   "Latitude": 53.52
 },
 {
   "Store Name": "99th Ave & 105 Street",
   "Longitude": -113.5,
   "Latitude": 53.54
 },
 {
   "Store Name": "50th Street Market",
   "Longitude": -113.41,
   "Latitude": 53.63
 },
 {
   "Store Name": "North Town Mall 97 St & 137 Ave",
   "Longitude": -113.49,
   "Latitude": 53.6
 },
 {
   "Store Name": "South Edmonton Common Indigo",
   "Longitude": -113.48,
   "Latitude": 53.45
 },
 {
   "Store Name": "Safeway-Edmonton #814",
   "Longitude": -113.42,
   "Latitude": 53.6
 },
 {
   "Store Name": "Terwilliger Gardens",
   "Longitude": -113.57,
   "Latitude": 53.45
 },
 {
   "Store Name": "NAIT Common Market",
   "Longitude": -113.51,
   "Latitude": 53.57
 },
 {
   "Store Name": "Whyte Avenue",
   "Longitude": -113.5,
   "Latitude": 53.52
 },
 {
   "Store Name": "Currents of Windermere",
   "Longitude": -113.61,
   "Latitude": 53.44
 },
 {
   "Store Name": "Kingsway Mall",
   "Longitude": -113.51,
   "Latitude": 53.56
 },
 {
   "Store Name": "West Edmonton Mall Chapters",
   "Longitude": -113.63,
   "Latitude": 53.52
 },
 {
   "Store Name": "Londonderry Mall",
   "Longitude": -113.45,
   "Latitude": 53.6
 },
 {
   "Store Name": "University of Alberta - Cameron Lib",
   "Longitude": -113.53,
   "Latitude": 53.52
 },
 {
   "Store Name": "Upper Windermere",
   "Longitude": -113.62,
   "Latitude": 53.44
 },
 {
   "Store Name": "Safeway - Edmonton #2278",
   "Longitude": -113.51,
   "Latitude": 53.45
 },
 {
   "Store Name": "Safeway - Edmonton #881",
   "Longitude": -113.58,
   "Latitude": 53.54
 },
 {
   "Store Name": "Hampton Market",
   "Longitude": -113.67,
   "Latitude": 53.49
 },
 {
   "Store Name": "The Grange",
   "Longitude": -113.68,
   "Latitude": 53.51
 },
 {
   "Store Name": "Safeway-Edmonton #877",
   "Longitude": -113.52,
   "Latitude": 53.49
 },
 {
   "Store Name": "Empire Building",
   "Longitude": -113.49,
   "Latitude": 53.54
 },
 {
   "Store Name": "Aramark @ University of Alberta",
   "Longitude": -113.52,
   "Latitude": 53.52
 },
 {
   "Store Name": "Terrace Rd and 101 Ave",
   "Longitude": -113.42,
   "Latitude": 53.54
 },
 {
   "Store Name": "Millwoods Town Centre",
   "Longitude": -113.43,
   "Latitude": 53.45
 },
 {
   "Store Name": "Jasper Gates",
   "Longitude": -113.58,
   "Latitude": 53.54
 },
 {
   "Store Name": "Newcastle",
   "Longitude": -113.54,
   "Latitude": 53.63
 },
 {
   "Store Name": "Brewery District on 104",
   "Longitude": -113.53,
   "Latitude": 53.55
 },
 {
   "Store Name": "23 Ave & 111 St",
   "Longitude": -113.52,
   "Latitude": 53.46
 },
 {
   "Store Name": "Scona Market",
   "Longitude": -113.5,
   "Latitude": 53.51
 },
 {
   "Store Name": "Skyview Power Centre",
   "Longitude": -113.56,
   "Latitude": 53.6
 },
 {
   "Store Name": "Jasper Ave & 119 St",
   "Longitude": -113.53,
   "Latitude": 53.54
 },
 {
   "Store Name": "YEG Edmonton Transborder",
   "Longitude": -113.49,
   "Latitude": 53.55
 },
 {
   "Store Name": "Courtyard-Edmonton Int'l Airport",
   "Longitude": -113.41,
   "Latitude": 53.47
 },
 {
   "Store Name": "Aramark @ Grant MacEwan Clock Tower",
   "Longitude": -113.5,
   "Latitude": 53.55
 },
 {
   "Store Name": "YEG G - 56",
   "Longitude": -113.49,
   "Latitude": 53.55
 },
 {
   "Store Name": "Safeway - Edmonton #800",
   "Longitude": -113.59,
   "Latitude": 53.52
 },
 {
   "Store Name": "Manning Fwy & Manning",
   "Longitude": -113.41,
   "Latitude": 53.61
 },
 {
   "Store Name": "Depot 170 Chapters",
   "Longitude": -113.62,
   "Latitude": 53.54
 },
 {
   "Store Name": "Aramark@ UoA-CCIS Faculty of Scienc",
   "Longitude": -113.53,
   "Latitude": 53.53
 },
 {
   "Store Name": "Safeway - Edmonton #802",
   "Longitude": -113.59,
   "Latitude": 53.47
 },
 {
   "Store Name": "Safeway - Edmonton #838",
   "Longitude": -113.55,
   "Latitude": 53.56
 },
 {
   "Store Name": "Sobeys Walker Edmonton",
   "Longitude": -113.42,
   "Latitude": 53.42
 },
 {
   "Store Name": "Safeway - Edmonton #816",
   "Longitude": -113.62,
   "Latitude": 53.53
 },
 {
   "Store Name": "South Edmonton Commons",
   "Longitude": -113.49,
   "Latitude": 53.45
 },
 {
   "Store Name": "West Edmonton Mall Ice Palace",
   "Longitude": -113.62,
   "Latitude": 53.52
 },
 {
   "Store Name": "South Park",
   "Longitude": -113.49,
   "Latitude": 53.47
 },
 {
   "Store Name": "McLeod Park",
   "Longitude": -113.43,
   "Latitude": 53.62
 },
 {
   "Store Name": "170th St & 90th Ave NW",
   "Longitude": -113.62,
   "Latitude": 53.53
 },
 {
   "Store Name": "Safeway-Edmonton #887",
   "Longitude": -113.6,
   "Latitude": 53.43
 },
 {
   "Store Name": "Southgate Mall",
   "Longitude": -113.51,
   "Latitude": 53.49
 },
 {
   "Store Name": "Ellerslie & Parsons",
   "Longitude": -113.48,
   "Latitude": 53.43
 },
 {
   "Store Name": "YEG C7",
   "Longitude": -113.49,
   "Latitude": 53.55
 },
 {
   "Store Name": "Save-on-Foods - Fort McMurray",
   "Longitude": -111.43,
   "Latitude": 56.73
 },
 {
   "Store Name": "Stoneycreek Village",
   "Longitude": -111.44,
   "Latitude": 56.76
 },
 {
   "Store Name": "Fort McMurray Airport",
   "Longitude": -111.15,
   "Latitude": 56.66
 },
 {
   "Store Name": "Frankin Ave & Queen St.",
   "Longitude": -111.36,
   "Latitude": 56.72
 },
 {
   "Store Name": "Safeway-Fort McMurray #888",
   "Longitude": -111.37,
   "Latitude": 56.72
 },
 {
   "Store Name": "Safeway Fort Saskatchewan #846",
   "Longitude": -113.21,
   "Latitude": 53.69
 },
 {
   "Store Name": "Fort Saskatchewan",
   "Longitude": -113.22,
   "Latitude": 53.69
 },
 {
   "Store Name": "Safeway-Grand Prairie #810",
   "Longitude": -118.79,
   "Latitude": 55.18
 },
 {
   "Store Name": "Safeway - Grand Prairie #826",
   "Longitude": -118.79,
   "Latitude": 55.16
 },
 {
   "Store Name": "Mission Heights",
   "Longitude": -118.8,
   "Latitude": 55.14
 },
 {
   "Store Name": "Cobblestone",
   "Longitude": -118.77,
   "Latitude": 55.17
 },
 {
   "Store Name": "Rio Can Centre",
   "Longitude": -118.82,
   "Latitude": 55.17
 },
 {
   "Store Name": "Safeway - Hinton #825",
   "Longitude": -117.59,
   "Latitude": 53.41
 },
 {
   "Store Name": "Safeway-Leduc #801",
   "Longitude": -113.55,
   "Latitude": 53.27
 },
 {
   "Store Name": "Leduc Crossroads",
   "Longitude": -113.55,
   "Latitude": 53.27
 },
 {
   "Store Name": "Safeway-Lethbridge #2276",
   "Longitude": -112.89,
   "Latitude": 49.69
 },
 {
   "Store Name": "Mayor Magrath Drive",
   "Longitude": -112.8,
   "Latitude": 49.68
 },
 {
   "Store Name": "Safeway-Lethbridge #299",
   "Longitude": -112.79,
   "Latitude": 49.67
 },
 {
   "Store Name": "West Lethbridge Towne Centre",
   "Longitude": -112.89,
   "Latitude": 49.69
 },
 {
   "Store Name": "Lethbridge Chapters",
   "Longitude": -112.84,
   "Latitude": 49.7
 },
 {
   "Store Name": "University Of Lethbridge",
   "Longitude": -112.87,
   "Latitude": 49.68
 },
 {
   "Store Name": "Highway 16 & 75 Street",
   "Longitude": -110.06,
   "Latitude": 53.28
 },
 {
   "Store Name": "Safeway - Lloydminster #884",
   "Longitude": -110.01,
   "Latitude": 53.28
 },
 {
   "Store Name": "Strachan Road",
   "Longitude": -110.65,
   "Latitude": 50
 },
 {
   "Store Name": "Safeway - Medicine Hat #2220",
   "Longitude": -110.69,
   "Latitude": 50.03
 },
 {
   "Store Name": "Trans Can Hwy & 13th Ave SE",
   "Longitude": -110.66,
   "Latitude": 50.01
 },
 {
   "Store Name": "Save On Foods North Lethbridge",
   "Longitude": -112.83,
   "Latitude": 49.7
 },
 {
   "Store Name": "Cornerstone Southridge",
   "Longitude": -113.97,
   "Latitude": 50.71
 },
 {
   "Store Name": "Safeway-Okotoks #2223",
   "Longitude": -113.98,
   "Latitude": 50.72
 },
 {
   "Store Name": "Bower Place",
   "Longitude": -113.81,
   "Latitude": 52.24
 },
 {
   "Store Name": "Safeway - Red Deer #813",
   "Longitude": -113.81,
   "Latitude": 52.26
 },
 {
   "Store Name": "Teavana - Bower Place",
   "Longitude": -113.81,
   "Latitude": 52.25
 },
 {
   "Store Name": "Gaetz Ave Chapters",
   "Longitude": -113.82,
   "Latitude": 52.24
 },
 {
   "Store Name": "Red Deer College",
   "Longitude": -113.82,
   "Latitude": 52.25
 },
 {
   "Store Name": "Red Deer Village",
   "Longitude": -113.81,
   "Latitude": 52.29
 },
 {
   "Store Name": "Clearview",
   "Longitude": -113.77,
   "Latitude": 52.29
 },
 {
   "Store Name": "Taylor Ave & 67th St",
   "Longitude": -113.84,
   "Latitude": 52.29
 },
 {
   "Store Name": "Gasoline Alley",
   "Longitude": -113.82,
   "Latitude": 52.21
 },
 {
   "Store Name": "Teavana - Cross Iron",
   "Longitude": -113.99,
   "Latitude": 51.2
 },
 {
   "Store Name": "Cross Iron Indigo",
   "Longitude": -113.99,
   "Latitude": 51.21
 },
 {
   "Store Name": "Safeway-Sherwood Park #811",
   "Longitude": -113.32,
   "Latitude": 53.51
 },
 {
   "Store Name": "Safeway-Sherwood Park #822",
   "Longitude": -113.3,
   "Latitude": 53.53
 },
 {
   "Store Name": "Emerald Hills",
   "Longitude": -113.27,
   "Latitude": 53.57
 },
 {
   "Store Name": "Millennium Ridge",
   "Longitude": -113.32,
   "Latitude": 53.56
 },
 {
   "Store Name": "Baseline Road",
   "Longitude": -113.31,
   "Latitude": 53.54
 },
 {
   "Store Name": "Ash St & Wye Rd",
   "Longitude": -113.31,
   "Latitude": 53.51
 },
 {
   "Store Name": "Safeway-Spruce Grove #857",
   "Longitude": -113.91,
   "Latitude": 53.54
 },
 {
   "Store Name": "Highway 16A & Century Rd",
   "Longitude": -113.88,
   "Latitude": 53.54
 },
 {
   "Store Name": "Hwy 16A & Jennifer Heil Way",
   "Longitude": -113.93,
   "Latitude": 53.54
 },
 {
   "Store Name": "Servus Credit Union Place",
   "Longitude": -113.58,
   "Latitude": 53.65
 },
 {
   "Store Name": "Safeway - St Albert #806",
   "Longitude": -113.63,
   "Latitude": 53.64
 },
 {
   "Store Name": "Erin Ridge",
   "Longitude": -113.64,
   "Latitude": 53.67
 },
 {
   "Store Name": "Village Landing",
   "Longitude": -113.61,
   "Latitude": 53.62
 },
 {
   "Store Name": "St.Albert Chapters",
   "Longitude": -113.63,
   "Latitude": 53.65
 },
 {
   "Store Name": "Bellerose Drive",
   "Longitude": -113.62,
   "Latitude": 53.65
 },
 {
   "Store Name": "Giroux Crossing",
   "Longitude": -113.63,
   "Latitude": 53.65
 },
 {
   "Store Name": "Safeway-Stony Plain #823",
   "Longitude": -113.98,
   "Latitude": 53.54
 },
 {
   "Store Name": "Ranch Market-Strathmore",
   "Longitude": -113.39,
   "Latitude": 51.04
 },
 {
   "Store Name": "Safeway - Wetaskiwin #862",
   "Longitude": -113.39,
   "Latitude": 52.96
 },
 {
   "Store Name": "Sumas Mountain Village",
   "Longitude": -122.22,
   "Latitude": 49.04
 },
 {
   "Store Name": "Sumas Way & DeLair Road",
   "Longitude": -122.27,
   "Latitude": 49.04
 },
 {
   "Store Name": "Sevenoaks SC - S.Fraser & Gladwin",
   "Longitude": -122.31,
   "Latitude": 49.05
 },
 {
   "Store Name": "McCallum and No. 1",
   "Longitude": -122.29,
   "Latitude": 49.04
 },
 {
   "Store Name": "Bakerview - Sumas Way",
   "Longitude": -122.27,
   "Latitude": 49.03
 },
 {
   "Store Name": "Abbotsford Hospital - main lobby",
   "Longitude": -122.31,
   "Latitude": 49.04
 },
 {
   "Store Name": "High Street - Abbotsford",
   "Longitude": -122.38,
   "Latitude": 49.06
 },
 {
   "Store Name": "Fraser Station - Abbotsford",
   "Longitude": -122.46,
   "Latitude": 49.06
 },
 {
   "Store Name": "West Oaks Mall",
   "Longitude": -122.32,
   "Latitude": 49.05
 },
 {
   "Store Name": "Save On Foods Sumas",
   "Longitude": -122.27,
   "Latitude": 49.04
 },
 {
   "Store Name": "Safeway - Abbotsford #88",
   "Longitude": -122.32,
   "Latitude": 49.05
 },
 {
   "Store Name": "Mt. Lehman Centre - Abbotsford",
   "Longitude": -122.38,
   "Latitude": 49.06
 },
 {
   "Store Name": "Safeway - Aldergrove #165",
   "Longitude": -122.46,
   "Latitude": 49.06
 },
 {
   "Store Name": "SFU - West Mall Building",
   "Longitude": -122.92,
   "Latitude": 49.28
 },
 {
   "Store Name": "Tandem - Dawson & Gilmore",
   "Longitude": -123.01,
   "Latitude": 49.26
 },
 {
   "Store Name": "Safeway - Burnaby #44",
   "Longitude": -122.97,
   "Latitude": 49.28
 },
 {
   "Store Name": "Brentwood Mall Level 2",
   "Longitude": -123,
   "Latitude": 49.27
 },
 {
   "Store Name": "Kingsway - Station Square",
   "Longitude": -123,
   "Latitude": 49.23
 },
 {
   "Store Name": "Safeway-Burnaby #42",
   "Longitude": -123,
   "Latitude": 49.28
 },
 {
   "Store Name": "Metrotown Food Court",
   "Longitude": -123,
   "Latitude": 49.23
 },
 {
   "Store Name": "Centrepoint-Kingsway & Miller",
   "Longitude": -123,
   "Latitude": 49.23
 },
 {
   "Store Name": "Metrotown Chapters",
   "Longitude": -123,
   "Latitude": 49.23
 },
 {
   "Store Name": "Marine Way & Byrne Road",
   "Longitude": -122.98,
   "Latitude": 49.2
 },
 {
   "Store Name": "Lougheed & Holdom",
   "Longitude": -122.98,
   "Latitude": 49.26
 },
 {
   "Store Name": "Lougheed & Willingdon",
   "Longitude": -123,
   "Latitude": 49.27
 },
 {
   "Store Name": "Boundary Rd & Canada Way",
   "Longitude": -123.02,
   "Latitude": 49.25
 },
 {
   "Store Name": "Solo District",
   "Longitude": -123,
   "Latitude": 49.27
 },
 {
   "Store Name": "Kensington Square",
   "Longitude": -122.97,
   "Latitude": 49.28
 },
 {
   "Store Name": "Lougheed Mall",
   "Longitude": -122.89,
   "Latitude": 49.25
 },
 {
   "Store Name": "Metropolis Skytrain",
   "Longitude": -123,
   "Latitude": 49.23
 },
 {
   "Store Name": "Simon Fraser University - Cornersto",
   "Longitude": -122.91,
   "Latitude": 49.28
 },
 {
   "Store Name": "Station Square Central Blvd.",
   "Longitude": -123,
   "Latitude": 49.23
 },
 {
   "Store Name": "Big Bend Crossing - Marine & Byrne",
   "Longitude": -122.98,
   "Latitude": 49.2
 },
 {
   "Store Name": "Teavana - Metropolis at Metrotown",
   "Longitude": -123,
   "Latitude": 49.23
 },
 {
   "Store Name": "Kingsway & Hall - Highgate Village",
   "Longitude": -122.96,
   "Latitude": 49.22
 },
 {
   "Store Name": "Safeway - Burnaby #121",
   "Longitude": -122.9,
   "Latitude": 49.25
 },
 {
   "Store Name": "Fortius Sport and Health",
   "Longitude": -122.97,
   "Latitude": 49.25
 },
 {
   "Store Name": "Carlton Square",
   "Longitude": -123.01,
   "Latitude": 49.28
 },
 {
   "Store Name": "Discovery Harbour",
   "Longitude": -125.25,
   "Latitude": 50.03
 },
 {
   "Store Name": "Mariner Square, Campbell River",
   "Longitude": -125.25,
   "Latitude": 50.03
 },
 {
   "Store Name": "Safeway-Castlegar #196",
   "Longitude": -117.66,
   "Latitude": 49.3
 },
 {
   "Store Name": "Promontory SC-Vedder & Promontory",
   "Longitude": -121.96,
   "Latitude": 49.11
 },
 {
   "Store Name": "Edwards Crossing - Yale & Ontario",
   "Longitude": -121.96,
   "Latitude": 49.17
 },
 {
   "Store Name": "Salish Plaza - Chilliwack",
   "Longitude": -121.95,
   "Latitude": 49.17
 },
 {
   "Store Name": "Cottonwood Mall",
   "Longitude": -121.96,
   "Latitude": 49.14
 },
 {
   "Store Name": "Safeway-Chilliwack #193",
   "Longitude": -121.96,
   "Latitude": 49.14
 },
 {
   "Store Name": "Eagle Landing - Chilliwack",
   "Longitude": -121.98,
   "Latitude": 49.15
 },
 {
   "Store Name": "Safeway - Chilliwack #99",
   "Longitude": -121.96,
   "Latitude": 49.16
 },
 {
   "Store Name": "Garrison & Vedder",
   "Longitude": -121.96,
   "Latitude": 49.1
 },
 {
   "Store Name": "Clearbrook Town Square",
   "Longitude": -122.32,
   "Latitude": 49.05
 },
 {
   "Store Name": "Cloverdale Crossing-64th & 176th",
   "Longitude": -122.73,
   "Latitude": 49.12
 },
 {
   "Store Name": "Austin Station",
   "Longitude": -122.82,
   "Latitude": 49.25
 },
 {
   "Store Name": "Coquitlam Centre",
   "Longitude": -122.8,
   "Latitude": 49.28
 },
 {
   "Store Name": "Westwood Plateau Village",
   "Longitude": -122.8,
   "Latitude": 49.3
 },
 {
   "Store Name": "Pinetree Village",
   "Longitude": -122.8,
   "Latitude": 49.28
 },
 {
   "Store Name": "Como Lake",
   "Longitude": -122.84,
   "Latitude": 49.26
 },
 {
   "Store Name": "Eagle Ridge - Lansdowne & Guildford",
   "Longitude": -122.81,
   "Latitude": 49.28
 },
 {
   "Store Name": "Prairie Mall",
   "Longitude": -122.76,
   "Latitude": 49.27
 },
 {
   "Store Name": "United Blvd & Schooner St",
   "Longitude": -122.84,
   "Latitude": 49.23
 },
 {
   "Store Name": "Safeway-Coquitlam #20",
   "Longitude": -122.79,
   "Latitude": 49.28
 },
 {
   "Store Name": "Crown Isle",
   "Longitude": -124.96,
   "Latitude": 49.71
 },
 {
   "Store Name": "Courtenay Crossing",
   "Longitude": -124.99,
   "Latitude": 49.68
 },
 {
   "Store Name": "Cranbrook",
   "Longitude": -115.75,
   "Latitude": 49.53
 },
 {
   "Store Name": "Safeway - Cranbrook #2271",
   "Longitude": -115.77,
   "Latitude": 49.51
 },
 {
   "Store Name": "Dawson Creek",
   "Longitude": -120.22,
   "Latitude": 55.75
 },
 {
   "Store Name": "Safeway - Dawson Creek #819",
   "Longitude": -120.22,
   "Latitude": 55.75
 },
 {
   "Store Name": "Tsawwassen Ferry Terminal",
   "Longitude": -123.13,
   "Latitude": 49.01
 },
 {
   "Store Name": "Sunshine Hills",
   "Longitude": -122.89,
   "Latitude": 49.12
 },
 {
   "Store Name": "Safeway - North Delta #14",
   "Longitude": -122.89,
   "Latitude": 49.12
 },
 {
   "Store Name": "Ladner",
   "Longitude": -123.08,
   "Latitude": 49.09
 },
 {
   "Store Name": "Scott & 72nd",
   "Longitude": -122.89,
   "Latitude": 49.13
 },
 {
   "Store Name": "Safeway - Delta #179",
   "Longitude": -123.08,
   "Latitude": 49.09
 },
 {
   "Store Name": "Beverly Corners at Trans Can Hwy",
   "Longitude": -123.71,
   "Latitude": 48.79
 },
 {
   "Store Name": "Duncan Plaza",
   "Longitude": -123.7,
   "Latitude": 48.78
 },
 {
   "Store Name": "Save-on-Foods - Duncan",
   "Longitude": -123.7,
   "Latitude": 48.78
 },
 {
   "Store Name": "Save On Foods Jasper",
   "Longitude": -113.51,
   "Latitude": 53.54
 },
 {
   "Store Name": "Fernie",
   "Longitude": -115.06,
   "Latitude": 49.51
 },
 {
   "Store Name": "Safeway - Fort St John #820",
   "Longitude": -120.85,
   "Latitude": 56.24
 },
 {
   "Store Name": "Gibsons Park Plaza",
   "Longitude": -123.53,
   "Latitude": 49.41
 },
 {
   "Store Name": "Safeway Kamloops #89",
   "Longitude": -120.35,
   "Latitude": 50.67
 },
 {
   "Store Name": "Columbia Place - Kamloops",
   "Longitude": -120.35,
   "Latitude": 50.67
 },
 {
   "Store Name": "Cityview Shopping Centre-Kamloops",
   "Longitude": -120.37,
   "Latitude": 50.65
 },
 {
   "Store Name": "Kamloops Chapters",
   "Longitude": -120.38,
   "Latitude": 50.65
 },
 {
   "Store Name": "Thompson Rivers University",
   "Longitude": -120.36,
   "Latitude": 50.67
 },
 {
   "Store Name": "Safeway-Kamloops #56",
   "Longitude": -120.36,
   "Latitude": 50.7
 },
 {
   "Store Name": "Columbia St & 3rd Ave - Kamloops",
   "Longitude": -120.33,
   "Latitude": 50.67
 },
 {
   "Store Name": "Summit Ctre - Kamloops",
   "Longitude": -120.36,
   "Latitude": 50.66
 },
 {
   "Store Name": "Valleyview SC - Kamloops",
   "Longitude": -120.28,
   "Latitude": 50.68
 },
 {
   "Store Name": "Northills SC - Kamloops",
   "Longitude": -120.36,
   "Latitude": 50.7
 },
 {
   "Store Name": "Mission Park",
   "Longitude": -119.49,
   "Latitude": 49.86
 },
 {
   "Store Name": "Safeway - Kelowna #170",
   "Longitude": -119.49,
   "Latitude": 49.89
 },
 {
   "Store Name": "Teavana - Orchard Park",
   "Longitude": -119.44,
   "Latitude": 49.88
 },
 {
   "Store Name": "Mission Creek Plaza-Kelowna",
   "Longitude": -119.49,
   "Latitude": 49.84
 },
 {
   "Store Name": "Harvey & Gordon-Kelowna",
   "Longitude": -119.48,
   "Latitude": 49.88
 },
 {
   "Store Name": "Orchard Park Chapters",
   "Longitude": -119.44,
   "Latitude": 49.88
 },
 {
   "Store Name": "Guisachan Village",
   "Longitude": -119.47,
   "Latitude": 49.87
 },
 {
   "Store Name": "Central Park - Kelowna",
   "Longitude": -119.43,
   "Latitude": 49.89
 },
 {
   "Store Name": "Bernard & Pandosy",
   "Longitude": -119.5,
   "Latitude": 49.89
 },
 {
   "Store Name": "Kelowna Airport Business Park",
   "Longitude": -119.39,
   "Latitude": 49.95
 },
 {
   "Store Name": "Hwy 97 at Leathead-Kelowna",
   "Longitude": -119.41,
   "Latitude": 49.9
 },
 {
   "Store Name": "Rutland Crossing",
   "Longitude": -119.39,
   "Latitude": 49.89
 },
 {
   "Store Name": "Aramark University of British Colum",
   "Longitude": -119.43,
   "Latitude": 49.95
 },
 {
   "Store Name": "Safeway-Kelowna #7",
   "Longitude": -119.43,
   "Latitude": 49.88
 },
 {
   "Store Name": "Brandt's Creek Crossing",
   "Longitude": -119.44,
   "Latitude": 49.92
 },
 {
   "Store Name": "Save-on-Foods - Ladysmith",
   "Longitude": -123.8,
   "Latitude": 48.98
 },
 {
   "Store Name": "Cascades Casino, Coast Hotel & Conv",
   "Longitude": -122.66,
   "Latitude": 49.11
 },
 {
   "Store Name": "Millstream & McCallum",
   "Longitude": -123.5,
   "Latitude": 48.46
 },
 {
   "Store Name": "Hull's Corner-Jacklin & Langford",
   "Longitude": -123.51,
   "Latitude": 48.44
 },
 {
   "Store Name": "Langford Centre",
   "Longitude": -123.5,
   "Latitude": 48.45
 },
 {
   "Store Name": "Thunderbird - 200th & 88th",
   "Longitude": -122.66,
   "Latitude": 49.16
 },
 {
   "Store Name": "Willowbrook Shopping Centre",
   "Longitude": -122.67,
   "Latitude": 49.11
 },
 {
   "Store Name": "Valley Centre",
   "Longitude": -122.66,
   "Latitude": 49.11
 },
 {
   "Store Name": "Langley / Chapters",
   "Longitude": -122.67,
   "Latitude": 49.11
 },
 {
   "Store Name": "208th & Fraser - Langley",
   "Longitude": -122.65,
   "Latitude": 49.1
 },
 {
   "Store Name": "Brookswood Village-200th & 40th",
   "Longitude": -122.67,
   "Latitude": 49.08
 },
 {
   "Store Name": "200th St & 86th Ave D/T-Langley",
   "Longitude": -122.67,
   "Latitude": 49.16
 },
 {
   "Store Name": "Safeway-Langley #59",
   "Longitude": -122.67,
   "Latitude": 49.11
 },
 {
   "Store Name": "Walnut Grove",
   "Longitude": -122.64,
   "Latitude": 49.16
 },
 {
   "Store Name": "Safeway-Langley #43",
   "Longitude": -122.64,
   "Latitude": 49.1
 },
 {
   "Store Name": "Jericho Corner Shopping Centre",
   "Longitude": -122.67,
   "Latitude": 49.13
 },
 {
   "Store Name": "Langley City Square",
   "Longitude": -122.67,
   "Latitude": 49.11
 },
 {
   "Store Name": "Dewdney Trunk & 240th",
   "Longitude": -122.56,
   "Latitude": 49.22
 },
 {
   "Store Name": "Valley Fair Mall",
   "Longitude": -122.59,
   "Latitude": 49.22
 },
 {
   "Store Name": "Dewdney & 227th - Maple Ridge",
   "Longitude": -122.59,
   "Latitude": 49.22
 },
 {
   "Store Name": "Westgate Cntr/Mpl Rdg",
   "Longitude": -122.66,
   "Latitude": 49.22
 },
 {
   "Store Name": "Safeway-Maple Ridge #198",
   "Longitude": -122.66,
   "Latitude": 49.22
 },
 {
   "Store Name": "DeWolf & Voght - Merritt",
   "Longitude": -120.76,
   "Latitude": 50.12
 },
 {
   "Store Name": "Safeway Mission  - #142",
   "Longitude": -122.32,
   "Latitude": 49.13
 },
 {
   "Store Name": "Mission Junction Shopping Center",
   "Longitude": -122.32,
   "Latitude": 49.13
 },
 {
   "Store Name": "Metral Station - Nanaimo",
   "Longitude": -124.04,
   "Latitude": 49.23
 },
 {
   "Store Name": "Terminal SC @ Princess Ave-Nanaimo",
   "Longitude": -123.95,
   "Latitude": 49.18
 },
 {
   "Store Name": "University Village - Nanaimo",
   "Longitude": -123.95,
   "Latitude": 49.16
 },
 {
   "Store Name": "Departure Bay Ferry Terminal",
   "Longitude": -123.96,
   "Latitude": 49.19
 },
 {
   "Store Name": "Port Place Mall-Nanaimo",
   "Longitude": -123.93,
   "Latitude": 49.16
 },
 {
   "Store Name": "Country Club Centre",
   "Longitude": -124.01,
   "Latitude": 49.21
 },
 {
   "Store Name": "Woodgrove Chapters",
   "Longitude": -124.05,
   "Latitude": 49.24
 },
 {
   "Store Name": "Safeway - Nelson #133",
   "Longitude": -117.28,
   "Latitude": 49.5
 },
 {
   "Store Name": "Safeway-New Westminster #58",
   "Longitude": -122.91,
   "Latitude": 49.22
 },
 {
   "Store Name": "E. Columbia & Sherbrooke",
   "Longitude": -122.89,
   "Latitude": 49.23
 },
 {
   "Store Name": "Safeway-New Westminster #82",
   "Longitude": -122.9,
   "Latitude": 49.21
 },
 {
   "Store Name": "Westminster Mall",
   "Longitude": -122.92,
   "Latitude": 49.21
 },
 {
   "Store Name": "Shops at NewWest",
   "Longitude": -122.91,
   "Latitude": 49.2
 },
 {
   "Store Name": "Royal Square",
   "Longitude": -122.91,
   "Latitude": 49.22
 },
 {
   "Store Name": "Queensborough Landing",
   "Longitude": -122.95,
   "Latitude": 49.19
 },
 {
   "Store Name": "The Brewery District-New West",
   "Longitude": -122.89,
   "Latitude": 49.22
 },
 {
   "Store Name": "Save-on-Food - New Westminster",
   "Longitude": -122.92,
   "Latitude": 49.21
 },
 {
   "Store Name": "Columbia Square Plaza",
   "Longitude": -122.92,
   "Latitude": 49.2
 },
 {
   "Store Name": "6th & Columbia",
   "Longitude": -122.91,
   "Latitude": 49.2
 },
 {
   "Store Name": "13th & Lonsdale",
   "Longitude": -123.07,
   "Latitude": 49.32
 },
 {
   "Store Name": "Park & Tilford",
   "Longitude": -123.04,
   "Latitude": 49.31
 },
 {
   "Store Name": "Lynn Valley",
   "Longitude": -123.04,
   "Latitude": 49.34
 },
 {
   "Store Name": "Safeway-North Vancouver #23",
   "Longitude": -123.09,
   "Latitude": 49.33
 },
 {
   "Store Name": "1331 Main Street",
   "Longitude": -123.04,
   "Latitude": 49.31
 },
 {
   "Store Name": "Lonsdale Ave & 17th",
   "Longitude": -123.07,
   "Latitude": 49.32
 },
 {
   "Store Name": "Capilano Mall",
   "Longitude": -123.1,
   "Latitude": 49.32
 },
 {
   "Store Name": "Lonsdale Quay",
   "Longitude": -123.08,
   "Latitude": 49.31
 },
 {
   "Store Name": "Safeway - North Vancouver #162",
   "Longitude": -122.97,
   "Latitude": 49.32
 },
 {
   "Store Name": "Deep Cove",
   "Longitude": -122.95,
   "Latitude": 49.31
 },
 {
   "Store Name": "Edgemont",
   "Longitude": -123.1,
   "Latitude": 49.34
 },
 {
   "Store Name": "Lonsdale & 29th",
   "Longitude": -123.07,
   "Latitude": 49.34
 },
 {
   "Store Name": "Pemberton Plaza",
   "Longitude": -123.11,
   "Latitude": 49.32
 },
 {
   "Store Name": "Lonsdale Ave & 3rd St",
   "Longitude": -123.08,
   "Latitude": 49.31
 },
 {
   "Store Name": "Island Hwy & Mills Rd",
   "Longitude": -124.3,
   "Latitude": 49.32
 },
 {
   "Store Name": "Safeway-Penticton #153",
   "Longitude": -119.59,
   "Latitude": 49.48
 },
 {
   "Store Name": "Main St & Front St - Penticton",
   "Longitude": -119.59,
   "Latitude": 49.5
 },
 {
   "Store Name": "Cherry Lane - Penticton",
   "Longitude": -119.58,
   "Latitude": 49.47
 },
 {
   "Store Name": "Hwy 97 & Riverside Dr - Penticton",
   "Longitude": -119.62,
   "Latitude": 49.5
 },
 {
   "Store Name": "Meadowvale",
   "Longitude": -122.69,
   "Latitude": 49.23
 },
 {
   "Store Name": "Pacific Rim Station-Pt Alberni D/T",
   "Longitude": -124.79,
   "Latitude": 49.27
 },
 {
   "Store Name": "Shaughnessy Street",
   "Longitude": -122.78,
   "Latitude": 49.26
 },
 {
   "Store Name": "Fremont Village - Coquitlam",
   "Longitude": -122.74,
   "Latitude": 49.25
 },
 {
   "Store Name": "Oxford & Lougheed",
   "Longitude": -122.77,
   "Latitude": 49.26
 },
 {
   "Store Name": "Safeway-Port Coquitlam #93",
   "Longitude": -122.78,
   "Latitude": 49.27
 },
 {
   "Store Name": "Broadway Junction",
   "Longitude": -122.76,
   "Latitude": 49.24
 },
 {
   "Store Name": "Suter Brook Village",
   "Longitude": -122.83,
   "Latitude": 49.28
 },
 {
   "Store Name": "Heritage Mountain",
   "Longitude": -122.83,
   "Latitude": 49.28
 },
 {
   "Store Name": "Port Moody",
   "Longitude": -122.86,
   "Latitude": 49.28
 },
 {
   "Store Name": "Safeway - Powell River #182",
   "Longitude": -124.52,
   "Latitude": 49.84
 },
 {
   "Store Name": "Town Ctr Mall-Powell River",
   "Longitude": -124.52,
   "Latitude": 49.84
 },
 {
   "Store Name": "Spruceland",
   "Longitude": -122.78,
   "Latitude": 53.92
 },
 {
   "Store Name": "West Central & 15th Avenue - PG",
   "Longitude": -122.78,
   "Latitude": 53.91
 },
 {
   "Store Name": "College Heights",
   "Longitude": -122.78,
   "Latitude": 53.87
 },
 {
   "Store Name": "Ramada Plaza Prince George",
   "Longitude": -122.74,
   "Latitude": 53.91
 },
 {
   "Store Name": "Pine Ctre -Prince George",
   "Longitude": -122.78,
   "Latitude": 53.9
 },
 {
   "Store Name": "Safeway-Prince Rupert #78",
   "Longitude": -130.32,
   "Latitude": 54.31
 },
 {
   "Store Name": "Safeway-Quesnel #71",
   "Longitude": -122.5,
   "Latitude": 52.98
 },
 {
   "Store Name": "Revelstoke Trans Canada",
   "Longitude": -118.22,
   "Latitude": 51.01
 },
 {
   "Store Name": "Safeway-Richmond #191",
   "Longitude": -123.18,
   "Latitude": 49.15
 },
 {
   "Store Name": "Ironwood Plaza",
   "Longitude": -123.09,
   "Latitude": 49.13
 },
 {
   "Store Name": "Ackroyd",
   "Longitude": -123.14,
   "Latitude": 49.17
 },
 {
   "Store Name": "Steveston - No. 1 & Bayview",
   "Longitude": -123.18,
   "Latitude": 49.12
 },
 {
   "Store Name": "YVR Vancouver Flagship, Level 3",
   "Longitude": -123.18,
   "Latitude": 49.19
 },
 {
   "Store Name": "Bridgeport & Sweden",
   "Longitude": -123.08,
   "Latitude": 49.19
 },
 {
   "Store Name": "Bridgeport & No 3 Road",
   "Longitude": -123.13,
   "Latitude": 49.19
 },
 {
   "Store Name": "Sherton Vancouver Airport",
   "Longitude": -123.14,
   "Latitude": 49.17
 },
 {
   "Store Name": "YVR Vancouver Pier C",
   "Longitude": -123.18,
   "Latitude": 49.19
 },
 {
   "Store Name": "Blundell",
   "Longitude": -123.16,
   "Latitude": 49.15
 },
 {
   "Store Name": "YVR West Chevron",
   "Longitude": -123.18,
   "Latitude": 49.19
 },
 {
   "Store Name": "YVR Vancouver Main/DTB",
   "Longitude": -123.18,
   "Latitude": 49.2
 },
 {
   "Store Name": "Teavana - Richmond Centre",
   "Longitude": -123.14,
   "Latitude": 49.17
 },
 {
   "Store Name": "Richlea Square",
   "Longitude": -123.14,
   "Latitude": 49.14
 },
 {
   "Store Name": "No.1 & Westminster /TerraNova",
   "Longitude": -123.18,
   "Latitude": 49.17
 },
 {
   "Store Name": "YVR Concourse A Gate A2",
   "Longitude": -123.18,
   "Latitude": 49.19
 },
 {
   "Store Name": "Richmond Hospital/Lobby",
   "Longitude": -123.15,
   "Latitude": 49.17
 },
 {
   "Store Name": "YVR Vancouver US Departures",
   "Longitude": -123.18,
   "Latitude": 49.2
 },
 {
   "Store Name": "Safeway - Richmond #138",
   "Longitude": -123.16,
   "Latitude": 49.16
 },
 {
   "Store Name": "Richmond Centre",
   "Longitude": -123.14,
   "Latitude": 49.17
 },
 {
   "Store Name": "Save-on-Foods - Tillicum Victoria",
   "Longitude": -123.39,
   "Latitude": 48.45
 },
 {
   "Store Name": "Gateway Village Saanich",
   "Longitude": -123.38,
   "Latitude": 48.46
 },
 {
   "Store Name": "Piccadilly Mall - Salmon Arm",
   "Longitude": -119.3,
   "Latitude": 50.69
 },
 {
   "Store Name": "Tsain-Ko Village Sechelt",
   "Longitude": -123.75,
   "Latitude": 49.47
 },
 {
   "Store Name": "Save-on-Foods - Sidney",
   "Longitude": -123.4,
   "Latitude": 48.65
 },
 {
   "Store Name": "Sidney",
   "Longitude": -123.4,
   "Latitude": 48.65
 },
 {
   "Store Name": "Compass-Victoria International Airp",
   "Longitude": -123.43,
   "Latitude": 48.64
 },
 {
   "Store Name": "Safeway - Smithers #144",
   "Longitude": -127.19,
   "Latitude": 54.82
 },
 {
   "Store Name": "Whiterock",
   "Longitude": -122.8,
   "Latitude": 49.03
 },
 {
   "Store Name": "Garibaldi Village - Squamish",
   "Longitude": -123.13,
   "Latitude": 49.74
 },
 {
   "Store Name": "Squamish",
   "Longitude": -123.15,
   "Latitude": 49.7
 },
 {
   "Store Name": "Safeway-Surrey #92",
   "Longitude": -122.89,
   "Latitude": 49.14
 },
 {
   "Store Name": "Teavana - Guildford Town Centre",
   "Longitude": -122.8,
   "Latitude": 49.19
 },
 {
   "Store Name": "Safeway-Surrey #1",
   "Longitude": -122.85,
   "Latitude": 49.19
 },
 {
   "Store Name": "Cloverdale",
   "Longitude": -122.73,
   "Latitude": 49.1
 },
 {
   "Store Name": "Safeway - Surrey #184",
   "Longitude": -122.84,
   "Latitude": 49.13
 },
 {
   "Store Name": "Tribeca - 152nd & KGB",
   "Longitude": -122.8,
   "Latitude": 49.05
 },
 {
   "Store Name": "Ocean Park",
   "Longitude": -122.87,
   "Latitude": 49.03
 },
 {
   "Store Name": "Morgan Crossing",
   "Longitude": -122.78,
   "Latitude": 49.05
 },
 {
   "Store Name": "Surrey Park Place",
   "Longitude": -122.84,
   "Latitude": 49.18
 },
 {
   "Store Name": "108th & 160th - Fraser Heights",
   "Longitude": -122.78,
   "Latitude": 49.2
 },
 {
   "Store Name": "Nordel Annex - Nordel & 120th",
   "Longitude": -122.89,
   "Latitude": 49.16
 },
 {
   "Store Name": "Safeway-Surrey #47",
   "Longitude": -122.8,
   "Latitude": 49.05
 },
 {
   "Store Name": "South Surrey Power Centre",
   "Longitude": -122.8,
   "Latitude": 49.06
 },
 {
   "Store Name": "Panorama Village -Hwy 10 & 152nd",
   "Longitude": -122.8,
   "Latitude": 49.1
 },
 {
   "Store Name": "Guildford Town Centre Level 1",
   "Longitude": -122.8,
   "Latitude": 49.19
 },
 {
   "Store Name": "Newton Village",
   "Longitude": -122.84,
   "Latitude": 49.14
 },
 {
   "Store Name": "Brick Yard Station - Cloverdale",
   "Longitude": -122.74,
   "Latitude": 49.11
 },
 {
   "Store Name": "10174 152nd St - Guildford",
   "Longitude": -122.8,
   "Latitude": 49.19
 },
 {
   "Store Name": "City Centre 1",
   "Longitude": -122.84,
   "Latitude": 49.18
 },
 {
   "Store Name": "Cedar Hills-96th & 128th",
   "Longitude": -122.87,
   "Latitude": 49.18
 },
 {
   "Store Name": "Guildford Town Centre Level 2",
   "Longitude": -122.8,
   "Latitude": 49.19
 },
 {
   "Store Name": "Alder Crossing - 148th & KGH",
   "Longitude": -122.81,
   "Latitude": 49.06
 },
 {
   "Store Name": "Safeway-Surrey #62",
   "Longitude": -122.8,
   "Latitude": 49.16
 },
 {
   "Store Name": "London Station",
   "Longitude": -122.84,
   "Latitude": 49.19
 },
 {
   "Store Name": "Clayton Crossing",
   "Longitude": -122.7,
   "Latitude": 49.12
 },
 {
   "Store Name": "Fraser Hwy & 159th",
   "Longitude": -122.78,
   "Latitude": 49.16
 },
 {
   "Store Name": "Central City Shopping Centre",
   "Longitude": -122.85,
   "Latitude": 49.19
 },
 {
   "Store Name": "Indigo at Grandview Corners",
   "Longitude": -122.78,
   "Latitude": 49.05
 },
 {
   "Store Name": "Teavana - Central City",
   "Longitude": -122.84,
   "Latitude": 49.19
 },
 {
   "Store Name": "Fleetwood",
   "Longitude": -122.8,
   "Latitude": 49.16
 },
 {
   "Store Name": "Safeway - Terrace #126",
   "Longitude": -128.59,
   "Latitude": 54.52
 },
 {
   "Store Name": "Bayside Village",
   "Longitude": -123.07,
   "Latitude": 49.02
 },
 {
   "Store Name": "Tsawwassen Mills",
   "Longitude": -123.08,
   "Latitude": 49.04
 },
 {
   "Store Name": "Save-on-Foods - Delta",
   "Longitude": -123.07,
   "Latitude": 49.02
 },
 {
   "Store Name": "Pacific Blvd & Davie/Concord",
   "Longitude": -123.12,
   "Latitude": 49.27
 },
 {
   "Store Name": "Westin Bayshore",
   "Longitude": -123.13,
   "Latitude": 49.29
 },
 {
   "Store Name": "Cornwall & Cypress",
   "Longitude": -123.15,
   "Latitude": 49.27
 },
 {
   "Store Name": "Granville & Georgia",
   "Longitude": -123.12,
   "Latitude": 49.28
 },
 {
   "Store Name": "1855 Burrard Street",
   "Longitude": -123.15,
   "Latitude": 49.27
 },
 {
   "Store Name": "Safeway - Vancouver #114",
   "Longitude": -123.13,
   "Latitude": 49.25
 },
 {
   "Store Name": "UBC - Fred Kaiser Bldg",
   "Longitude": -123.25,
   "Latitude": 49.26
 },
 {
   "Store Name": "The Melville - Melville & Bute",
   "Longitude": -123.12,
   "Latitude": 49.29
 },
 {
   "Store Name": "West Broadway",
   "Longitude": -123.17,
   "Latitude": 49.26
 },
 {
   "Store Name": "Hyatt Regency Vancouver Lobby Licen",
   "Longitude": -123.12,
   "Latitude": 49.29
 },
 {
   "Store Name": "Portico - Granville St & 7th Ave",
   "Longitude": -123.14,
   "Latitude": 49.27
 },
 {
   "Store Name": "Hastings & Kaslo Street",
   "Longitude": -123.05,
   "Latitude": 49.28
 },
 {
   "Store Name": "Safeway - Vancouver #90",
   "Longitude": -123.14,
   "Latitude": 49.29
 },
 {
   "Store Name": "University Marketplace",
   "Longitude": -123.24,
   "Latitude": 49.27
 },
 {
   "Store Name": "Bentall 4 - Burrard & Dunsmuir",
   "Longitude": -123.12,
   "Latitude": 49.29
 },
 {
   "Store Name": "Grouse Mountain Resort Vancouver",
   "Longitude": -123.1,
   "Latitude": 49.37
 },
 {
   "Store Name": "Oak Street",
   "Longitude": -123.13,
   "Latitude": 49.25
 },
 {
   "Store Name": "UBC @ University Boulevard New Book",
   "Longitude": -123.25,
   "Latitude": 49.27
 },
 {
   "Store Name": "Manulife Center",
   "Longitude": -123.12,
   "Latitude": 49.29
 },
 {
   "Store Name": "49th & Fraser",
   "Longitude": -123.09,
   "Latitude": 49.23
 },
 {
   "Store Name": "Brava - Davie & Seymour",
   "Longitude": -123.13,
   "Latitude": 49.28
 },
 {
   "Store Name": "West Hastings & Howe St",
   "Longitude": -123.12,
   "Latitude": 49.29
 },
 {
   "Store Name": "Killarney Shopping Ctre",
   "Longitude": -123.05,
   "Latitude": 49.23
 },
 {
   "Store Name": "Oakridge Centre",
   "Longitude": -123.12,
   "Latitude": 49.23
 },
 {
   "Store Name": "Broadway & Heather",
   "Longitude": -123.12,
   "Latitude": 49.26
 },